# Time (s),Altitude (m),Vertical velocity (m/s),Vertical acceleration (m/s²),Total velocity (m/s),Total acceleration (m/s²),Position East of launch (m),Position North of launch (m),Lateral distance (m),Lateral direction (°),Lateral velocity (m/s),Lateral acceleration (m/s²),Latitude (°),Longitude (°),Gravitational acceleration (m/s²),Angle of attack (°),Roll rate (°/s),Pitch rate (°/s),Yaw rate (°/s),Mass (g),Motor mass (g),Longitudinal moment of inertia (kg·m²),Rotational moment of inertia (kg·m²),CP location (mm),CG location (mm),Stability margin calibers (​),Mach number (​),Reynolds number (​),Thrust (N),Drag force (N),Drag coefficient (​),Axial drag coefficient (​),Friction drag coefficient (​),Pressure drag coefficient (​),Base drag coefficient (​),Normal force coefficient (​),Pitch moment coefficient (​),Yaw moment coefficient (​),Side force coefficient (​),Roll moment coefficient (​),Roll forcing coefficient (​),Roll damping coefficient (​),Pitch damping coefficient (​),Coriolis acceleration (m/s²),Reference length (mm),Reference area (cm²),Vertical orientation (zenith) (°),Lateral orientation (azimuth) (°),Wind velocity (m/s),Air temperature (°C),Air pressure (mbar),Speed of sound (m/s),Simulation time step (s),Computation time (s)
0.01,-0,-0.083,-8.265,0.083,8.265,0,0,0,0,0,0,28.61,-80.6,9.792,92.055,0,0,0,518.274,81.274,0.011,0,NaN,245.651,NaN,0.007,71956.709,0.792,-0,0.519,-0,0.279,0.12,0.12,NaN,NaN,NaN,NaN,NaN,NaN,NaN,NaN,0,62.4,30.582,90,0,2.303,15,1013.25,340.389,0.01,0.001
0.02,-0,-0.052,-5.21,0.052,5.21,0,0,0,0,0,0,28.61,-80.6,9.792,91.294,0,0,0,518.248,81.249,0.011,0,NaN,245.641,NaN,0.007,72044.623,2.375,-0,0.519,-0,0.279,0.12,0.12,NaN,NaN,NaN,NaN,NaN,NaN,NaN,NaN,0,62.4,30.582,90,0,2.307,15,1013.25,340.389,0.01,0.001
0.03,-0,-0.022,-2.154,0.022,2.154,0,0,0,0,0,0,28.61,-80.6,9.792,90.534,0,0,0,518.223,81.223,0.011,0,NaN,245.632,NaN,0.007,72145.224,3.958,-0,0.519,-0,0.279,0.12,0.12,NaN,NaN,NaN,NaN,NaN,NaN,NaN,NaN,0,62.4,30.582,90,0,2.311,15,1013.25,340.389,0.01,0.002
0.04,0,0.009,0.901,0.009,0.901,0,0,0,0,0,0,28.61,-80.6,9.792,89.777,0,0,0,518.197,81.198,0.011,0,NaN,245.622,NaN,0.007,72258.463,5.541,0,0.519,0,0.279,0.12,0.12,NaN,NaN,NaN,NaN,NaN,NaN,NaN,NaN,0,62.4,30.582,90,0,2.315,15,1013.25,340.389,0.01,0.002
0.05,0,0.062,5.318,0.062,5.318,0,0,0,0,0,0,28.61,-80.6,9.792,88.464,0,0,0,518.055,81.055,0.011,0,NaN,245.568,NaN,0.007,72399.761,7.828,0,0.519,0,0.279,0.12,0.12,NaN,NaN,NaN,NaN,NaN,NaN,NaN,NaN,0,62.4,30.582,90,0,2.318,15,1013.25,340.389,0.01,0.002
0.06,0.002,0.173,11.095,0.173,11.095,0,0,0,0,0,0,28.61,-80.6,9.792,85.715,0,0,0,517.912,80.912,0.011,0,NaN,245.514,NaN,0.007,72328.407,10.818,0,0.519,0.001,0.279,0.12,0.12,NaN,NaN,NaN,NaN,NaN,NaN,NaN,NaN,0,62.4,30.582,90,0,2.31,15,1013.25,340.389,0.01,0.002
0.07,0.004,0.342,16.875,0.342,16.875,0,0,0,0,0,0,28.61,-80.6,9.792,81.556,0,0,0,517.769,80.77,0.011,0,NaN,245.46,NaN,0.007,72666.527,13.807,0,0.519,0.004,0.278,0.12,0.12,NaN,NaN,NaN,NaN,NaN,NaN,NaN,NaN,0,62.4,30.582,90,0,2.302,15,1013.25,340.389,0.01,0.003
0.08,0.009,0.568,22.658,0.568,22.658,0,0,0,0,0,0,28.61,-80.6,9.792,76.088,0,0,0,517.626,80.627,0.011,0,NaN,245.406,NaN,0.007,73796.019,16.797,0,0.518,0.016,0.277,0.12,0.12,NaN,NaN,NaN,NaN,NaN,NaN,NaN,NaN,0,62.4,30.582,90,0,2.294,15,1013.249,340.389,0.01,0.003
0.09,0.016,0.853,28.443,0.853,28.443,0,0,0,0,0,0,28.61,-80.6,9.792,69.548,0,0,0,517.484,80.484,0.011,0,NaN,245.352,NaN,0.007,76186.15,19.787,0.001,0.515,0.047,0.275,0.12,0.12,NaN,NaN,NaN,NaN,NaN,NaN,NaN,NaN,0,62.4,30.582,90,0,2.287,15,1013.248,340.389,0.01,0.003
0.1,0.026,1.195,34.232,1.195,34.232,0,0,0,0,0,0,28.61,-80.6,9.792,62.326,0,0,0,517.341,80.342,0.011,0,NaN,245.297,NaN,0.008,80325.103,22.777,0.001,0.512,0.104,0.271,0.121,0.12,NaN,NaN,NaN,NaN,NaN,NaN,NaN,NaN,0,62.4,30.582,90,0,2.279,15,1013.247,340.389,0.01,0.003
0.11,0.04,1.595,40.022,1.595,40.022,0,0,0,0,0,0,28.61,-80.6,9.792,54.992,0,0,0,517.198,80.199,0.011,0,NaN,245.243,NaN,0.008,86804.74,25.766,0.003,0.506,0.186,0.266,0.121,0.12,NaN,NaN,NaN,NaN,NaN,NaN,NaN,NaN,0,62.4,30.582,90,0,2.277,15,1013.245,340.389,0.01,0.004
0.12,0.058,2.056,46.095,2.056,46.095,0,0,0,0,0,0,28.61,-80.6,9.792,47.912,0,0,0,516.945,79.945,0.011,0,NaN,245.147,NaN,0.009,95757.385,28.896,0.005,0.5,0.283,0.259,0.121,0.12,NaN,NaN,NaN,NaN,NaN,NaN,NaN,NaN,0,62.4,30.582,90,0,2.276,15,1013.243,340.389,0.01,0.004
0.13,0.082,2.603,54.695,2.603,54.695,0,0,0,0,0,0,28.61,-80.6,9.792,41.158,0,0,0,516.525,79.526,0.01,0,NaN,244.987,NaN,0.01,107919.697,33.318,0.009,0.492,0.382,0.251,0.121,0.12,NaN,NaN,NaN,NaN,NaN,NaN,NaN,NaN,0,62.4,30.582,90,0,2.275,14.999,1013.24,340.389,0.01,0.004
0.14,0.111,3.242,63.915,3.242,63.915,0,0,0,0,0,0,28.61,-80.6,9.792,35.049,0,0,0,516.106,79.106,0.01,0,NaN,244.827,NaN,0.012,123614.467,38.055,0.014,0.484,0.468,0.243,0.122,0.12,NaN,NaN,NaN,NaN,NaN,NaN,NaN,NaN,0,62.4,30.582,90,0,2.274,14.999,1013.237,340.388,0.01,0.005
0.15,0.147,3.973,73.147,3.973,73.147,0,0,0,0,0,0,28.61,-80.6,9.792,29.773,0,0,0,515.686,78.687,0.01,0,NaN,244.667,NaN,0.013,142886.108,42.791,0.021,0.476,0.53,0.234,0.122,0.12,NaN,NaN,NaN,NaN,NaN,NaN,NaN,NaN,0.001,62.4,30.582,90,0,2.273,14.999,1013.233,340.388,0.01,0.005
0.16,0.191,4.796,82.389,4.796,82.389,0,0,0,0,0,0,28.61,-80.6,9.792,25.365,0,0,0,515.266,78.267,0.01,0,NaN,244.506,NaN,0.016,165710.925,47.528,0.03,0.468,0.568,0.226,0.122,0.12,NaN,NaN,NaN,NaN,NaN,NaN,NaN,NaN,0.001,62.4,30.582,90,0,2.274,14.999,1013.228,340.388,0.01,0.005
0.17,0.243,5.712,91.642,5.712,91.642,0,0,0,0,0,0,28.61,-80.6,9.792,21.715,0,0,0,514.847,77.847,0.01,0,NaN,244.345,NaN,0.018,191957.29,52.264,0.041,0.461,0.585,0.218,0.123,0.12,NaN,NaN,NaN,NaN,NaN,NaN,NaN,NaN,0.001,62.4,30.582,90,0,2.275,14.998,1013.221,340.388,0.01,0.006
0.18,0.305,6.721,100.905,6.721,100.905,0,0,0,0,0,0,28.61,-80.6,9.792,18.708,0,0,0,514.427,77.428,0.01,0,NaN,244.184,NaN,0.021,221530.501,57.001,0.055,0.454,0.588,0.211,0.123,0.12,NaN,NaN,NaN,NaN,NaN,NaN,NaN,NaN,0.001,62.4,30.582,90,0,2.276,14.998,1013.214,340.388,0.01,0.006
0.19,0.378,7.823,110.177,7.823,110.177,0,0,0,0,0,0,28.61,-80.6,9.792,16.23,0,0,0,514.008,77.008,0.01,0,NaN,244.023,NaN,0.024,254346.749,61.738,0.072,0.448,0.581,0.204,0.124,0.12,NaN,NaN,NaN,NaN,NaN,NaN,NaN,NaN,0.001,62.4,30.582,90,0,2.277,14.998,1013.206,340.387,0.01,0.006
0.2,0.462,9.017,119.46,9.017,119.46,0,0,0,0,0,0,28.61,-80.6,9.792,14.18,0,0,0,513.588,76.588,0.01,0,NaN,243.861,NaN,0.027,290337.439,66.474,0.092,0.442,0.565,0.198,0.124,0.12,NaN,NaN,NaN,NaN,NaN,NaN,NaN,NaN,0.001,62.4,30.582,90,0,2.278,14.997,1013.196,340.387,0.01,0.006
0.21,0.559,10.304,128.754,10.304,128.754,0,0,0,0,0,0,28.61,-80.6,9.792,12.347,0,0,0,513.168,76.169,0.01,0,NaN,243.7,NaN,0.031,329289.161,71.211,0.113,0.437,0.544,0.193,0.124,0.12,NaN,NaN,NaN,NaN,NaN,NaN,NaN,NaN,0.001,62.4,30.582,90,0,2.256,14.996,1013.184,340.387,0.01,0.007
0.22,0.665,11.605,134.073,11.605,134.073,0,0,0,0,0,0,28.61,-80.6,9.792,10.895,0,0,0,512.712,75.713,0.01,0,NaN,243.523,NaN,0.035,368924.902,73.899,0.137,0.433,0.524,0.188,0.125,0.12,NaN,NaN,NaN,NaN,NaN,NaN,NaN,NaN,0.001,62.4,30.582,90,0,2.234,14.996,1013.172,340.386,0.01,0.007
0.228,0.77,12.708,128.115,12.708,128.115,0,0,0,0,0,0,28.61,-80.6,9.792,9.883,0,0,0,512.287,75.288,0.01,0,NaN,243.359,NaN,0.038,402698.916,70.808,0.16,0.432,0.512,0.186,0.125,0.12,NaN,NaN,NaN,NaN,NaN,NaN,NaN,NaN,0.002,62.4,30.582,90,0,2.214,14.995,1013.16,340.386,0.009,0.007
0.236,0.874,13.668,122.049,13.668,122.049,0,0,0,0,0,0,28.61,-80.6,9.792,9.129,0,0,0,511.899,74.9,0.01,0,NaN,243.209,NaN,0.041,432149.432,67.67,0.181,0.432,0.504,0.186,0.126,0.12,NaN,NaN,NaN,NaN,NaN,NaN,NaN,NaN,0.002,62.4,30.582,90,0,2.196,14.994,1013.148,340.385,0.008,0.008
0.244,0.977,14.519,116.453,14.519,116.453,0,0,0,0,0,0,28.61,-80.6,9.792,8.537,0,0,0,511.539,74.539,0.01,0,NaN,243.069,NaN,0.043,458332.4,64.78,0.201,0.432,0.498,0.186,0.126,0.12,NaN,NaN,NaN,NaN,NaN,NaN,NaN,NaN,0.002,62.4,30.582,90,0,2.18,14.994,1013.135,340.385,0.007,0.008
0.25,1.079,15.285,111.212,15.285,111.212,0,0,0,0,0,0,28.61,-80.6,9.792,8.061,0,0,0,511.199,74.2,0.01,0,NaN,242.937,NaN,0.045,481910.281,62.077,0.22,0.433,0.492,0.186,0.126,0.12,NaN,NaN,NaN,NaN,NaN,NaN,NaN,NaN,0.002,62.4,30.582,90,0,2.165,14.993,1013.123,340.385,0.007,0.008
0.261,1.243,16.37,104.861,16.37,104.869,-0,0,0,-180,0.013,1.295,28.61,-80.6,9.792,7.462,0,3.537,-0.001,510.69,73.691,0.01,0,335.816,242.738,1.492,0.048,515330.552,58.8,0.248,0.433,0.486,0.186,0.126,0.12,1.33,1.983,0,0,0,0,0,0,0.002,62.4,30.582,89.982,0.001,2.162,14.992,1013.104,340.384,0.01,0.008
0.272,1.435,17.469,96.842,17.469,96.85,-0,0,0,-180,0.028,1.231,28.61,-80.6,9.792,6.877,0,7.642,-0,510.131,73.132,0.01,0,336.601,242.52,1.508,0.052,549339.231,54.675,0.278,0.433,0.48,0.186,0.127,0.12,1.214,1.83,0,0,0,0,0,0.001,0.002,62.4,30.582,89.919,0.002,2.16,14.991,1013.082,340.383,0.011,0.009
0.283,1.629,18.426,88.632,18.426,88.639,-0.001,0,0.001,180,0.04,1.093,28.61,-80.6,9.792,6.368,0,11.71,-0.001,509.599,72.599,0.01,0,337.301,242.312,1.522,0.054,578957.175,50.461,0.306,0.434,0.475,0.186,0.127,0.12,1.115,1.696,0,0,0,0,0,0.002,0.002,62.4,30.582,89.814,0.003,2.157,14.989,1013.059,340.382,0.011,0.009
0.293,1.826,19.278,81.487,19.278,81.492,-0.001,0,0.001,180,0.051,0.896,28.61,-80.6,9.792,5.899,0,15.741,-0,509.194,72.195,0.01,0,337.958,242.153,1.535,0.057,605346.737,46.806,0.331,0.434,0.47,0.186,0.127,0.12,1.025,1.57,-0,0,0,0,0,0.004,0.002,62.4,30.582,89.671,0.003,2.155,14.988,1013.036,340.382,0.01,0.009
0.304,2.029,20.07,76.711,20.07,76.713,-0.002,0,0.002,180,0.059,0.631,28.61,-80.6,9.792,5.423,0,19.745,-0.002,508.842,71.843,0.01,0,338.637,242.015,1.548,0.059,629847.965,44.366,0.355,0.434,0.465,0.186,0.127,0.12,0.935,1.443,-0,0,0,0,0,0.006,0.003,62.4,30.582,89.488,0.003,2.146,14.987,1013.012,340.381,0.01,0.009
0.314,2.241,20.817,72.094,20.817,72.094,-0.002,0,0.002,180,0.064,0.303,28.61,-80.6,9.792,4.915,-0,23.695,-0.001,508.488,71.489,0.01,0,339.377,241.876,1.563,0.061,652946.728,42.01,0.377,0.434,0.461,0.186,0.128,0.12,0.841,1.306,0,0,0,0,0,0.007,0.003,62.4,30.582,89.262,0.003,2.124,14.985,1012.987,340.38,0.01,0.01
0.325,2.466,21.534,67.401,21.534,67.401,-0.003,0,0.003,179.999,0.066,0.074,28.61,-80.6,9.792,4.393,-0,27.611,-0.002,508.125,71.126,0.01,0,340.152,241.734,1.577,0.064,675132.43,39.618,0.4,0.434,0.456,0.186,0.128,0.121,0.745,1.165,-0,0,0,0,0,0.009,0.003,62.4,30.582,88.989,0.003,2.103,14.984,1012.961,340.379,0.011,0.01
0.336,2.71,22.234,62.901,22.234,62.903,-0.004,0,0.004,179.999,0.063,0.51,28.61,-80.6,9.792,3.843,-0,31.478,-0.003,507.787,70.788,0.01,0,340.987,241.6,1.593,0.066,696827.424,37.33,0.422,0.435,0.452,0.186,0.128,0.121,0.646,1.016,0,0,0,0,0,0.011,0.003,62.4,30.582,88.66,0.003,2.08,14.982,1012.932,340.378,0.011,0.01
0.348,2.98,22.948,59.666,22.948,59.675,-0.004,0,0.004,179.999,0.054,1.049,28.61,-80.6,9.792,3.244,0,35.275,-0.004,507.452,70.453,0.01,0,341.916,241.468,1.61,0.068,718958.064,35.691,0.444,0.435,0.447,0.186,0.128,0.121,0.539,0.855,0,0,0,0,0,0.014,0.003,62.4,30.582,88.261,0.003,2.055,14.981,1012.901,340.377,0.012,0.01
0.361,3.291,23.699,56.28,23.699,56.305,-0.005,0,0.005,179.998,0.037,1.671,28.61,-80.6,9.792,2.631,0,38.996,-0.006,507.079,70.079,0.01,0,342.892,241.321,1.628,0.07,742350.595,33.981,0.47,0.435,0.443,0.186,0.128,0.121,0.433,0.689,0,0,0,0,0,0.016,0.003,62.4,30.582,87.765,0.004,2.054,14.979,1012.864,340.376,0.013,0.011
0.377,3.665,24.518,52.689,24.518,52.745,-0.005,0,0.005,179.997,0.006,2.429,28.61,-80.6,9.792,1.919,-0,42.56,-0.011,506.67,69.67,0.01,0,344.054,241.159,1.649,0.072,767876.603,32.178,0.499,0.435,0.44,0.186,0.128,0.121,0.312,0.497,0,0,0,0,0,0.017,0.003,62.4,30.582,87.13,0.004,2.06,14.976,1012.82,340.374,0.016,0.011
0.397,4.168,25.53,50.32,25.53,50.445,-0.005,0,0.005,179.993,0.053,3.557,28.61,-80.6,9.792,0.99,-0,45.674,-0.016,506.174,69.175,0.01,0,345.622,240.962,1.677,0.075,799484.052,31.017,0.537,0.436,0.437,0.186,0.129,0.121,0.158,0.247,0,0,0,0,0,0.018,0.003,62.4,30.582,86.242,0.005,2.067,14.973,1012.761,340.372,0.02,0.011
0.427,4.958,26.963,47.401,26.964,47.699,-0.002,0,0.002,179.952,0.184,5.325,28.61,-80.6,9.792,0.415,-0,-46.422,-0.039,505.444,68.445,0.01,0,346.628,240.672,1.698,0.079,844246.89,29.631,0.598,0.436,0.436,0.186,0.129,0.121,0.066,0.128,-0,0,0,0,0,-0.017,0.003,62.4,30.582,84.843,0.005,2.046,14.968,1012.668,340.369,0.03,0.011
0.472,6.223,28.998,44.797,29.002,45.469,0.013,0,0.013,0.016,0.48,7.784,28.61,-80.6,9.792,2.036,0,-37.445,-0.01,504.412,67.412,0.01,0,343.892,240.26,1.661,0.086,908264.898,28.51,0.701,0.436,0.442,0.186,0.129,0.121,0.332,0.56,0,0,0,0,0,-0.01,0.004,62.4,30.582,82.909,0.007,2.056,14.96,1012.52,340.364,0.045,0.012
0.484,6.582,29.531,43.461,29.537,44.25,0.019,0,0.019,0.014,0.579,8.32,28.61,-80.6,9.792,2.394,0,-32.949,-0.005,504.131,67.132,0.01,0,343.313,240.148,1.653,0.087,925217.339,27.895,0.73,0.437,0.444,0.186,0.129,0.121,0.393,0.656,0,0,0,0,0,-0.007,0.004,62.4,30.582,82.477,0.007,2.071,14.957,1012.478,340.363,0.012,0.012
0.495,6.89,29.976,42.893,29.984,43.767,0.026,0,0.026,0.013,0.667,8.705,28.61,-80.6,9.792,2.598,-0,-28.699,-0.001,503.894,66.895,0.01,0,342.988,240.054,1.65,0.088,939275.93,27.653,0.755,0.437,0.445,0.186,0.13,0.121,0.427,0.711,0,0,0,0,0,-0.005,0.004,62.4,30.582,82.158,0.007,2.085,14.955,1012.442,340.362,0.01,0.012
0.504,7.17,30.37,42.511,30.38,43.457,0.032,0,0.032,0.012,0.748,9.019,28.61,-80.6,9.792,2.758,0,-24.535,-0.003,503.691,66.692,0.01,0,342.734,239.972,1.647,0.09,951740.822,27.499,0.777,0.437,0.446,0.186,0.13,0.121,0.455,0.753,-0,0,0,0,0,-0.004,0.004,62.4,30.582,81.911,0.007,2.085,14.953,1012.409,340.361,0.009,0.012
0.512,7.43,30.731,42.297,30.742,43.305,0.039,0,0.039,0.011,0.826,9.29,28.61,-80.6,9.792,2.893,0,-20.375,-0.004,503.505,66.506,0.01,0,342.523,239.898,1.645,0.091,963096.949,27.425,0.797,0.437,0.447,0.186,0.13,0.121,0.479,0.79,0,0,0,0,0,-0.003,0.004,62.4,30.582,81.72,0.007,2.072,14.952,1012.379,340.36,0.009,0.013
0.52,7.674,31.064,42.107,31.078,43.163,0.046,0,0.046,0.011,0.901,9.493,28.61,-80.6,9.792,2.984,0,-16.258,-0.003,503.332,66.332,0.01,0,342.382,239.828,1.643,0.092,973633.945,27.357,0.816,0.437,0.448,0.186,0.13,0.121,0.494,0.814,0,0,0,0,0,-0.002,0.004,62.4,30.582,81.574,0.007,2.059,14.95,1012.35,340.359,0.008,0.013
0.528,7.909,31.38,41.935,31.395,43.028,0.053,0,0.053,0.011,0.973,9.639,28.61,-80.6,9.792,3.037,0,-12.181,-0.001,503.168,66.168,0.01,0,342.301,239.762,1.643,0.093,983581.228,27.293,0.834,0.437,0.448,0.186,0.13,0.121,0.504,0.829,0,0,0,0,0,-0.001,0.004,62.4,30.582,81.467,0.007,2.047,14.949,1012.322,340.358,0.008,0.013
0.535,8.137,31.682,41.778,31.699,42.897,0.06,0,0.06,0.01,1.043,9.735,28.61,-80.6,9.792,3.058,0,-8.121,-0.002,503.009,66.01,0.01,0,342.27,239.699,1.644,0.094,993126.811,27.232,0.85,0.437,0.448,0.186,0.13,0.121,0.507,0.834,0,0,0,0,0,-0,0.004,62.4,30.582,81.394,0.007,2.035,14.947,1012.296,340.357,0.007,0.013
0.542,8.361,31.975,41.634,31.994,42.768,0.068,0,0.068,0.01,1.111,9.784,28.61,-80.6,9.792,3.05,0,-4.083,-0.003,502.856,65.856,0.01,0,342.285,239.637,1.645,0.094,1002384.611,27.173,0.866,0.437,0.448,0.186,0.13,0.121,0.506,0.832,0,0,0,0,0,-0,0.004,62.4,30.582,81.351,0.007,2.023,14.946,1012.269,340.356,0.007,0.014
0.549,8.583,32.262,41.501,32.284,42.64,0.076,0,0.076,0.01,1.179,9.789,28.61,-80.6,9.792,3.014,0,-0.064,-0.005,502.704,65.705,0.01,0,342.344,239.576,1.647,0.095,1011461.161,27.115,0.882,0.437,0.448,0.186,0.13,0.121,0.5,0.823,0,0,0,0,0,-0,0.004,62.4,30.582,81.337,0.006,2.012,14.944,1012.243,340.355,0.007,0.014
0.556,8.806,32.547,41.377,32.571,42.511,0.084,0,0.084,0.01,1.246,9.754,28.61,-80.6,9.792,2.957,0,3.94,-0.004,502.554,65.555,0.01,0,342.437,239.516,1.649,0.096,1020437.953,27.057,0.897,0.437,0.448,0.186,0.13,0.121,0.49,0.808,-0,0,0,0,0,0,0.004,62.4,30.582,81.35,0.006,1.998,14.943,1012.217,340.354,0.007,0.014
0.563,9.031,32.83,41.262,32.857,42.381,0.093,0,0.093,0.01,1.313,9.675,28.61,-80.6,9.792,2.875,0,7.923,-0.006,502.404,65.404,0.01,0,342.57,239.455,1.652,0.097,1029387.905,27,0.912,0.437,0.447,0.186,0.13,0.121,0.475,0.785,0,0,0,0,0,0,0.004,62.4,30.582,81.391,0.006,1.984,14.941,1012.191,340.353,0.007,0.014
0.57,9.259,33.116,41.153,33.145,42.247,0.102,0,0.102,0.01,1.379,9.552,28.61,-80.6,9.792,2.765,0,11.882,-0.003,502.252,65.253,0.01,0,342.746,239.394,1.656,0.098,1038396.336,26.943,0.927,0.438,0.447,0.186,0.13,0.121,0.456,0.755,-0,0,0,0,0,0.001,0.004,62.4,30.582,81.46,0.006,1.97,14.94,1012.164,340.352,0.007,0.015
0.577,9.495,33.407,41.051,33.438,42.109,0.112,0,0.112,0.01,1.447,9.381,28.61,-80.6,9.792,2.628,0,15.825,-0.007,502.097,65.098,0.01,0,342.968,239.331,1.661,0.099,1047575.894,26.885,0.941,0.438,0.446,0.186,0.13,0.121,0.433,0.718,-0,0,0,0,0,0.001,0.004,62.4,30.582,81.558,0.005,1.955,14.938,1012.136,340.351,0.007,0.015
0.584,9.741,33.707,40.954,33.741,41.965,0.123,0,0.123,0.01,1.514,9.157,28.61,-80.6,9.792,2.461,0,19.733,-0.005,501.937,64.937,0.01,0,343.24,239.267,1.666,0.1,1057029.168,26.825,0.956,0.438,0.445,0.186,0.13,0.121,0.404,0.671,0,0,0,0,0,0.002,0.004,62.4,30.582,81.688,0.005,1.94,14.937,1012.108,340.351,0.007,0.015
0.592,10.002,34.021,40.86,34.058,41.813,0.135,0,0.135,0.009,1.584,8.874,28.61,-80.6,9.792,2.259,0,23.606,-0.004,501.769,64.769,0.01,0,343.571,239.199,1.673,0.1,1066926.001,26.763,0.972,0.438,0.444,0.186,0.13,0.121,0.37,0.615,-0,0,0,0,0,0.003,0.004,62.4,30.582,81.855,0.005,1.924,14.935,1012.077,340.35,0.008,0.015
0.6,10.282,34.356,40.777,34.396,41.658,0.148,0,0.148,0.009,1.655,8.521,28.61,-80.6,9.792,2.016,0,27.429,-0.01,501.59,64.59,0.01,0,343.97,239.127,1.68,0.101,1077470.185,26.702,0.989,0.438,0.443,0.186,0.13,0.121,0.328,0.548,-0,0,0,0,0,0.004,0.004,62.4,30.582,82.065,0.004,1.907,14.933,1012.044,340.348,0.008,0.016
0.609,10.595,34.725,40.802,34.768,41.593,0.164,0,0.164,0.009,1.73,8.073,28.61,-80.6,9.792,1.7,0,31.154,-0.008,501.395,64.395,0.01,0,344.496,239.048,1.69,0.103,1089113.76,26.689,1.007,0.438,0.442,0.186,0.13,0.121,0.275,0.461,0,0,0,0,0,0.005,0.004,62.4,30.582,82.33,0.004,1.901,14.931,1012.007,340.347,0.009,0.016
0.62,10.963,35.155,40.865,35.201,41.546,0.182,0,0.182,0.009,1.812,7.492,28.61,-80.6,9.792,1.303,0,34.728,-0.009,501.168,64.168,0.01,0,345.165,238.956,1.702,0.104,1102669.251,26.689,1.03,0.438,0.44,0.186,0.131,0.121,0.21,0.351,-0,0,0,0,0,0.006,0.005,62.4,30.582,82.678,0.003,1.895,14.929,1011.964,340.346,0.011,0.016
0.633,11.44,35.706,40.947,35.756,41.486,0.207,0,0.207,0.009,1.908,6.668,28.61,-80.6,9.792,0.767,0,37.941,-0.015,500.877,63.878,0.01,0,346.087,238.838,1.719,0.106,1120004.741,26.69,1.059,0.438,0.439,0.186,0.131,0.121,0.122,0.204,-0,0,0,0,0,0.006,0.005,62.4,30.582,83.169,0.002,1.886,14.926,1011.908,340.344,0.013,0.016
0.653,12.17,36.534,41.05,36.59,41.397,0.247,0,0.247,0.009,2.029,5.345,28.61,-80.6,9.792,0.046,-0,-39.55,-0.19,500.442,63.442,0.01,0,347.36,238.662,1.742,0.108,1145986.509,26.692,1.107,0.438,0.438,0.186,0.131,0.122,0.007,0.02,-0,0,0,0,0,-0.007,0.005,62.4,30.582,83.959,0.001,1.871,14.921,1011.823,340.341,0.02,0.017
0.684,13.296,37.779,41.133,37.841,41.274,0.311,0,0.311,0.008,2.16,3.414,28.61,-80.6,9.792,1.111,-0,-34.541,-0.001,499.789,62.789,0.01,0,345.517,238.396,1.717,0.112,1184825.006,26.694,1.189,0.439,0.44,0.186,0.131,0.122,0.178,0.311,-0,0,0,0,0,-0.005,0.005,62.4,30.582,85.103,-0.001,1.833,14.914,1011.691,340.337,0.03,0.017
0.696,13.783,38.307,41.145,38.37,41.229,0.339,0,0.339,0.008,2.199,2.642,28.61,-80.6,9.792,1.498,0,-29.792,-0.006,499.512,62.513,0.01,0,344.867,238.284,1.708,0.113,1201208.741,26.695,1.226,0.439,0.442,0.186,0.131,0.122,0.242,0.417,-0,0,0,0,0,-0.003,0.005,62.4,30.582,85.516,-0.002,1.816,14.91,1011.633,340.335,0.013,0.017
0.706,14.148,38.697,41.142,38.76,41.198,0.36,0,0.36,0.008,2.221,2.157,28.61,-80.6,9.792,1.733,0,-25.434,-0.004,499.308,62.309,0.01,0,344.479,238.2,1.703,0.114,1213333.003,26.696,1.254,0.439,0.443,0.186,0.131,0.122,0.281,0.481,0,0,0,0,0,-0.002,0.005,62.4,30.582,85.778,-0.003,1.815,14.908,1011.591,340.333,0.009,0.017
0.714,14.461,39.028,41.133,39.092,41.173,0.378,0,0.378,0.008,2.237,1.798,28.61,-80.6,9.792,1.901,0,-21.184,-0.003,499.135,62.135,0.01,0,344.204,238.13,1.7,0.115,1223638.137,26.697,1.278,0.439,0.444,0.186,0.131,0.122,0.309,0.527,-0,0,0,0,0,-0.002,0.005,62.4,30.582,85.966,-0.004,1.82,14.906,1011.554,340.332,0.008,0.017
0.721,14.743,39.324,41.122,39.388,41.15,0.394,0,0.394,0.008,2.249,1.531,28.61,-80.6,9.792,2.018,0,-17.027,-0,498.979,61.98,0.01,0,344.015,238.066,1.698,0.116,1232862.032,26.697,1.299,0.439,0.444,0.186,0.131,0.122,0.329,0.559,-0,0,0,0,0,-0.001,0.005,62.4,30.582,86.104,-0.004,1.824,14.904,1011.521,340.331,0.007,0.018
0.728,15.007,39.599,41.108,39.663,41.13,0.409,0,0.409,0.008,2.259,1.333,28.61,-80.6,9.792,2.097,0,-12.916,0,498.835,61.835,0.01,0,343.888,238.007,1.697,0.117,1241410.545,26.698,1.318,0.439,0.445,0.186,0.131,0.122,0.342,0.582,-0,0,0,0,0,-0.001,0.005,62.4,30.582,86.204,-0.004,1.828,14.902,1011.49,340.33,0.007,0.018
0.734,15.259,39.86,41.093,39.924,41.111,0.423,0,0.423,0.008,2.267,1.195,28.61,-80.6,9.792,2.144,0,-8.836,-0.004,498.698,61.699,0.01,0,343.813,237.951,1.697,0.118,1249514.355,26.698,1.337,0.439,0.445,0.186,0.131,0.122,0.35,0.595,0,0,0,0,0,-0,0.005,62.4,30.582,86.273,-0.005,1.832,14.901,1011.46,340.329,0.006,0.018
0.74,15.504,40.111,41.077,40.176,41.092,0.437,0,0.437,0.008,2.274,1.109,28.61,-80.6,9.792,2.164,0,-4.789,-0,498.566,61.567,0.01,0,343.783,237.898,1.697,0.118,1257324.201,26.699,1.354,0.439,0.445,0.186,0.131,0.122,0.354,0.601,-0,0,0,0,0,-0,0.005,62.4,30.582,86.315,-0.005,1.836,14.899,1011.432,340.328,0.006,0.019
0.746,15.744,40.357,41.06,40.421,41.074,0.451,0,0.451,0.008,2.28,1.071,28.61,-80.6,9.792,2.16,0,-0.765,-0.001,498.437,61.438,0.01,0,343.793,237.845,1.698,0.119,1264951.562,26.699,1.37,0.439,0.445,0.186,0.131,0.122,0.353,0.6,-0,0,0,0,0,-0,0.005,62.4,30.582,86.332,-0.005,1.839,14.898,1011.403,340.327,0.006,0.019
0.752,15.984,40.6,41.041,40.664,41.055,0.464,0,0.464,0.008,2.287,1.083,28.61,-80.6,9.792,2.128,0,3.239,-0,498.31,61.31,0.01,0,343.847,237.793,1.7,0.12,1272487.857,26.7,1.387,0.439,0.445,0.186,0.132,0.122,0.348,0.591,0,0,0,0,0,0,0.005,62.4,30.582,86.324,-0.005,1.84,14.896,1011.375,340.326,0.006,0.019
0.758,16.225,40.843,41.02,40.907,41.036,0.478,0,0.478,0.007,2.293,1.147,28.61,-80.6,9.792,2.068,0,7.202,-0.003,498.182,61.182,0.01,0,343.949,237.74,1.702,0.121,1280019.083,26.7,1.402,0.44,0.445,0.186,0.132,0.122,0.337,0.574,-0,0,0,0,0,0,0.005,62.4,30.582,86.293,-0.004,1.837,14.895,1011.347,340.325,0.006,0.019
0.764,16.472,41.09,40.997,41.155,41.017,0.492,0,0.492,0.007,2.3,1.26,28.61,-80.6,9.792,1.983,0,11.152,-0.001,498.052,61.052,0.01,0,344.09,237.687,1.705,0.121,1287675.797,26.701,1.418,0.44,0.445,0.186,0.132,0.122,0.323,0.551,0,0,0,0,0,0,0.005,62.4,30.582,86.238,-0.004,1.834,14.893,1011.318,340.324,0.006,0.02
0.77,16.728,41.344,40.972,41.409,40.997,0.506,0,0.506,0.007,2.309,1.425,28.61,-80.6,9.792,1.873,0,15.066,0.002,497.918,60.919,0.01,0,344.274,237.632,1.709,0.122,1295555.461,26.701,1.434,0.44,0.444,0.186,0.132,0.122,0.305,0.52,-0,0,0,0,0,0.001,0.005,62.4,30.582,86.156,-0.004,1.83,14.891,1011.288,340.323,0.006,0.02
0.777,16.997,41.61,40.942,41.675,40.976,0.521,0,0.521,0.007,2.319,1.647,28.61,-80.6,9.792,1.735,0,18.944,-0.001,497.778,60.779,0.01,0,344.505,237.575,1.714,0.123,1303791.501,26.702,1.45,0.44,0.444,0.186,0.132,0.122,0.282,0.482,-0,0,0,0,0,0.001,0.005,62.4,30.582,86.046,-0.003,1.827,14.89,1011.257,340.322,0.006,0.02
0.784,17.286,41.893,40.907,41.958,40.953,0.537,0,0.537,0.007,2.331,1.938,28.61,-80.6,9.792,1.564,0,22.775,0.001,497.629,60.63,0.01,0,344.794,237.514,1.719,0.124,1312574.212,26.702,1.468,0.44,0.443,0.186,0.132,0.122,0.253,0.433,-0,0,0,0,0,0.002,0.005,62.4,30.582,85.901,-0.003,1.823,14.888,1011.223,340.321,0.007,0.02
0.791,17.605,42.203,40.864,42.269,40.929,0.555,0,0.555,0.007,2.347,2.314,28.61,-80.6,9.792,1.352,0,26.539,0.006,497.466,60.466,0.01,0,345.154,237.446,1.726,0.125,1322200.001,26.703,1.487,0.44,0.442,0.186,0.132,0.122,0.218,0.374,0,0,0,0,0,0.002,0.005,62.4,30.582,85.714,-0.002,1.819,14.886,1011.185,340.32,0.008,0.021
0.8,17.972,42.557,40.807,42.623,40.903,0.575,0,0.575,0.007,2.369,2.807,28.61,-80.6,9.792,1.083,0,30.165,0.002,497.279,60.28,0.01,0,345.615,237.37,1.735,0.126,1333185.859,26.704,1.51,0.44,0.441,0.186,0.132,0.122,0.174,0.299,0,0,0,0,0,0.003,0.005,62.4,30.582,85.468,-0.001,1.814,14.883,1011.142,340.318,0.009,0.021
0.811,18.427,42.991,40.724,43.058,40.874,0.601,0,0.601,0.007,2.403,3.505,28.61,-80.6,9.792,0.708,-0,33.501,-0.002,497.049,60.05,0.01,0,346.264,237.275,1.747,0.127,1346655.073,26.704,1.538,0.44,0.441,0.186,0.132,0.122,0.113,0.193,0,0,0,0,0,0.003,0.006,62.4,30.582,85.128,-0,1.797,14.88,1011.089,340.316,0.011,0.021
0.827,19.119,43.64,40.573,43.71,40.837,0.639,0,0.639,0.007,2.468,4.639,28.61,-80.6,9.792,0.121,-0,35.794,0.005,496.705,59.706,0.01,0,347.299,237.134,1.765,0.129,1366844.24,26.705,1.582,0.44,0.44,0.186,0.132,0.122,0.019,0.03,0,0,0,0,0,0.004,0.006,62.4,30.582,84.57,0.002,1.771,14.876,1011.008,340.314,0.016,0.022
0.851,20.176,44.609,40.3,44.684,40.795,0.7,0,0.7,0.007,2.6,6.336,28.61,-80.6,9.792,0.705,-0,-32.828,0.021,496.189,59.189,0.01,0,346.288,236.921,1.753,0.132,1397070.227,26.707,1.657,0.44,0.441,0.186,0.132,0.122,0.112,0.2,-0,0,0,0,0,-0.003,0.006,62.4,30.582,83.732,0.004,1.732,14.869,1010.884,340.309,0.024,0.022
0.865,20.808,45.175,40.127,45.255,40.777,0.737,0,0.737,0.006,2.696,7.252,28.61,-80.6,9.792,1.115,0,-27.679,0.002,495.885,58.886,0.01,0,345.589,236.795,1.743,0.133,1414805.382,26.708,1.703,0.441,0.442,0.186,0.132,0.122,0.179,0.314,-0,0,0,0,0,-0.002,0.006,62.4,30.582,83.304,0.006,1.715,14.865,1010.81,340.307,0.014,0.022
0.874,21.212,45.532,40.024,45.616,40.764,0.762,0,0.762,0.006,2.763,7.731,28.61,-80.6,9.792,1.318,0,-23.254,-0.001,495.693,58.694,0.01,0,345.25,236.716,1.739,0.134,1426008.085,26.709,1.733,0.441,0.443,0.186,0.132,0.122,0.212,0.371,0,0,0,0,0,-0.001,0.006,62.4,30.582,83.077,0.006,1.705,14.862,1010.762,340.305,0.009,0.022
0.881,21.551,45.829,39.946,45.916,40.751,0.782,0,0.782,0.006,2.822,8.059,28.61,-80.6,9.792,1.449,0,-19.014,-0.001,495.533,58.534,0.01,0,345.032,236.649,1.737,0.135,1435340.3,26.71,1.758,0.441,0.443,0.186,0.132,0.122,0.234,0.408,-0,0,0,0,0,-0.001,0.006,62.4,30.582,82.92,0.006,1.697,14.86,1010.722,340.304,0.007,0.023
0.888,21.858,46.095,39.884,46.185,40.737,0.801,0,0.801,0.006,2.876,8.293,28.61,-80.6,9.792,1.537,0,-14.858,0.004,495.389,58.39,0.01,0,344.888,236.59,1.736,0.136,1443712.694,26.71,1.78,0.441,0.444,0.186,0.132,0.122,0.249,0.432,0,0,0,0,0,-0.001,0.006,62.4,30.582,82.807,0.007,1.689,14.858,1010.686,340.303,0.007,0.023
0.894,22.145,46.343,39.833,46.435,40.721,0.819,0,0.819,0.006,2.928,8.455,28.61,-80.6,9.792,1.592,0,-10.758,0,495.255,58.256,0.01,0,344.799,236.534,1.735,0.137,1451498.106,26.711,1.801,0.441,0.444,0.186,0.132,0.122,0.258,0.448,0,0,0,0,0,-0,0.006,62.4,30.582,82.727,0.007,1.682,14.856,1010.653,340.302,0.006,0.023
0.9,22.421,46.579,39.793,46.675,40.703,0.837,0,0.837,0.006,2.979,8.556,28.61,-80.6,9.792,1.619,0,-6.691,0.003,495.127,58.128,0.01,0,344.757,236.481,1.735,0.138,1458938.194,26.711,1.82,0.441,0.444,0.186,0.133,0.122,0.262,0.456,-0,0,0,0,0,-0,0.006,62.4,30.582,82.675,0.007,1.675,14.854,1010.62,340.301,0.006,0.024
0.906,22.69,46.809,39.764,46.907,40.682,0.854,0,0.854,0.006,3.028,8.591,28.61,-80.6,9.792,1.614,0,-2.675,0.004,495.003,58.003,0.01,0,344.768,236.43,1.736,0.138,1466179.366,26.712,1.838,0.441,0.444,0.186,0.133,0.122,0.261,0.454,0,0,0,0,0,-0,0.006,62.4,30.582,82.648,0.007,1.675,14.853,1010.589,340.3,0.006,0.024
0.911,22.959,47.037,39.743,47.137,40.658,0.872,0,0.872,0.006,3.078,8.574,28.61,-80.6,9.792,1.585,0,1.32,0.001,494.879,57.88,0.01,0,344.818,236.378,1.738,0.139,1473369.766,26.712,1.856,0.441,0.444,0.186,0.133,0.123,0.257,0.446,-0,0,0,0,0,0,0.006,62.4,30.582,82.644,0.007,1.676,14.851,1010.557,340.298,0.006,0.024
0.917,23.231,47.266,39.731,47.369,40.631,0.89,0,0.89,0.006,3.127,8.505,28.61,-80.6,9.792,1.535,0,5.276,0.008,494.755,57.755,0.01,0,344.906,236.327,1.74,0.14,1480595.829,26.713,1.874,0.441,0.444,0.186,0.133,0.123,0.248,0.432,-0,0,0,0,0,0,0.006,62.4,30.582,82.663,0.007,1.676,14.849,1010.525,340.297,0.006,0.024
0.923,23.511,47.5,39.725,47.606,40.6,0.908,0,0.908,0.006,3.177,8.382,28.61,-80.6,9.792,1.46,0,9.209,0.003,494.628,57.628,0.01,0,345.034,236.274,1.743,0.14,1487990.672,26.713,1.892,0.441,0.444,0.186,0.133,0.123,0.236,0.411,-0,0,0,0,0,0,0.006,62.4,30.582,82.706,0.008,1.676,14.847,1010.493,340.296,0.006,0.025
0.929,23.802,47.744,39.728,47.853,40.565,0.928,0,0.928,0.006,3.228,8.199,28.61,-80.6,9.792,1.361,0,13.097,0.005,494.496,57.496,0.01,0,345.204,236.219,1.747,0.141,1495668.702,26.714,1.91,0.441,0.444,0.186,0.133,0.123,0.22,0.383,0,0,0,0,0,0,0.006,62.4,30.582,82.775,0.008,1.677,14.845,1010.458,340.295,0.006,0.025
0.936,24.114,48.003,39.739,48.114,40.526,0.949,0,0.949,0.006,3.28,7.946,28.61,-80.6,9.792,1.231,0,16.936,0.01,494.355,57.356,0.01,0,345.426,236.161,1.751,0.142,1503828.136,26.714,1.929,0.441,0.443,0.186,0.133,0.123,0.198,0.347,-0,0,0,0,0,0.001,0.006,62.4,30.582,82.873,0.008,1.677,14.843,1010.422,340.294,0.007,0.025
0.943,24.457,48.286,39.758,48.401,40.48,0.973,0,0.973,0.006,3.336,7.608,28.61,-80.6,9.792,1.066,0,20.695,0.011,494.202,57.202,0.01,0,345.711,236.097,1.757,0.143,1512743.347,26.715,1.951,0.441,0.443,0.186,0.133,0.123,0.171,0.3,-0,0,0,0,0,0.001,0.006,62.4,30.582,83.007,0.008,1.677,14.841,1010.382,340.293,0.007,0.025
0.951,24.851,48.609,39.787,48.727,40.425,1,0,1,0.006,3.396,7.153,28.61,-80.6,9.792,0.852,0,24.32,0.013,494.026,57.027,0.01,0,346.083,236.024,1.764,0.144,1522911.68,26.715,1.975,0.441,0.442,0.186,0.133,0.123,0.136,0.239,-0,0,0,0,0,0.001,0.006,62.4,30.582,83.191,0.008,1.678,14.838,1010.335,340.291,0.008,0.026
0.961,25.342,49.01,39.828,49.132,40.357,1.035,0,1.035,0.006,3.464,6.515,28.61,-80.6,9.792,0.561,-0,27.672,0.018,493.809,56.81,0.01,0,346.591,235.933,1.773,0.145,1535487.686,26.716,2.006,0.442,0.442,0.186,0.133,0.123,0.089,0.156,-0,0,0,0,0,0.002,0.006,62.4,30.582,83.454,0.008,1.675,14.835,1010.278,340.289,0.01,0.026
0.976,26.085,49.61,39.885,49.737,40.257,1.087,0,1.087,0.006,3.555,5.463,28.61,-80.6,9.792,0.1,-0,29.985,0.114,493.485,56.485,0.01,0,347.41,235.798,1.789,0.147,1554273.197,26.717,2.054,0.442,0.442,0.186,0.133,0.123,0.016,0.026,-0,0,0,0,0,0.002,0.006,62.4,30.582,83.892,0.008,1.67,14.83,1010.191,340.286,0.015,0.026
0.999,27.215,50.511,39.934,50.643,40.122,1.169,0,1.169,0.006,3.659,3.887,28.61,-80.6,9.792,0.552,-0,-27.11,0.029,492.998,55.998,0.01,0,346.627,235.595,1.779,0.149,1582387.717,26.718,2.132,0.442,0.442,0.186,0.133,0.123,0.088,0.158,-0,0,0,0,0,-0.002,0.006,62.4,30.582,84.552,0.008,1.663,14.823,1010.058,340.282,0.023,0.026
1.012,27.906,51.055,39.936,51.189,40.053,1.219,0,1.219,0.006,3.706,3.051,28.61,-80.6,9.792,0.868,0,-22.033,-0.001,492.704,55.705,0.01,0,346.086,235.472,1.773,0.151,1599236.661,26.72,2.181,0.442,0.443,0.186,0.133,0.123,0.139,0.247,0,0,0,0,0,-0.001,0.007,62.4,30.582,84.889,0.007,1.644,14.819,1009.977,340.279,0.014,0.027
1.021,28.353,51.403,39.925,51.538,40.011,1.252,0,1.252,0.006,3.731,2.632,28.61,-80.6,9.792,1.016,-0,-17.625,0.013,492.516,55.517,0.01,0,345.837,235.393,1.77,0.152,1610021.039,26.721,2.213,0.442,0.444,0.186,0.133,0.123,0.163,0.289,0,0,0,0,0,-0.001,0.007,62.4,30.582,85.062,0.007,1.63,14.816,1009.925,340.277,0.009,0.027
1.028,28.733,51.697,39.907,51.833,39.977,1.279,0,1.279,0.006,3.749,2.362,28.61,-80.6,9.792,1.105,0,-13.415,0.005,492.358,55.358,0.01,0,345.69,235.326,1.769,0.153,1619097.075,26.721,2.24,0.442,0.444,0.186,0.133,0.123,0.177,0.314,-0,0,0,0,0,-0,0.007,62.4,30.582,85.177,0.006,1.619,14.813,1009.88,340.276,0.007,0.027
1.035,29.08,51.965,39.886,52.101,39.946,1.304,0,1.304,0.006,3.764,2.187,28.61,-80.6,9.792,1.156,0,-9.289,0.002,492.213,55.214,0.009,0,345.606,235.266,1.768,0.154,1627361.554,26.722,2.264,0.442,0.444,0.186,0.133,0.123,0.186,0.329,0,0,0,0,0,-0,0.007,62.4,30.582,85.253,0.006,1.609,14.811,1009.839,340.274,0.007,0.028
1.041,29.411,52.218,39.862,52.354,39.916,1.328,0,1.328,0.006,3.778,2.088,28.61,-80.6,9.792,1.177,0,-5.214,0.007,492.076,55.077,0.009,0,345.573,235.208,1.769,0.154,1635171.096,26.722,2.287,0.442,0.444,0.186,0.133,0.123,0.189,0.335,-0,0,0,0,0,-0,0.007,62.4,30.582,85.299,0.006,1.599,14.809,1009.801,340.273,0.006,0.028
1.047,29.733,52.463,39.834,52.599,39.887,1.351,0,1.351,0.006,3.791,2.057,28.61,-80.6,9.792,1.173,0,-1.198,0.011,491.944,54.944,0.009,0,345.583,235.153,1.77,0.155,1642732.128,26.723,2.308,0.442,0.444,0.186,0.133,0.123,0.189,0.334,0,0,0,0,0,-0,0.007,62.4,30.582,85.318,0.005,1.589,14.807,1009.763,340.272,0.006,0.028
1.054,30.054,52.706,39.804,52.843,39.858,1.375,0,1.375,0.006,3.803,2.075,28.61,-80.6,9.792,1.153,0,2.788,0.001,491.812,54.812,0.009,0,345.621,235.097,1.771,0.156,1650270.861,26.723,2.329,0.443,0.444,0.186,0.133,0.123,0.186,0.329,0,0,0,0,0,0,0.007,62.4,30.582,85.313,0.005,1.587,14.805,1009.725,340.271,0.006,0.028
1.06,30.379,52.951,39.77,53.088,39.828,1.398,0,1.398,0.006,3.816,2.146,28.61,-80.6,9.792,1.115,0,6.754,-0,491.679,54.68,0.009,0,345.689,235.041,1.773,0.156,1657869.313,26.724,2.351,0.443,0.444,0.186,0.134,0.123,0.179,0.317,-0,0,0,0,0,0,0.007,62.4,30.582,85.284,0.005,1.591,14.803,1009.687,340.269,0.006,0.029
1.066,30.713,53.201,39.731,53.339,39.796,1.422,0,1.422,0.006,3.83,2.284,28.61,-80.6,9.792,1.052,0,10.653,0.002,491.543,54.544,0.009,0,345.8,234.984,1.776,0.157,1665635.909,26.724,2.372,0.443,0.444,0.186,0.134,0.123,0.169,0.3,0,0,0,0,0,0,0.007,62.4,30.582,85.229,0.005,1.595,14.8,1009.648,340.268,0.006,0.029
1.073,31.066,53.464,39.685,53.602,39.764,1.448,0,1.448,0.006,3.846,2.497,28.61,-80.6,9.792,0.961,0,14.504,-0.002,491.401,54.401,0.009,0,345.959,234.924,1.779,0.158,1673793.032,26.725,2.395,0.443,0.444,0.186,0.134,0.123,0.154,0.274,0,0,0,0,0,0,0.007,62.4,30.582,85.146,0.005,1.599,14.798,1009.606,340.267,0.007,0.029
1.08,31.451,53.748,39.63,53.887,39.728,1.475,0,1.475,0.006,3.865,2.8,28.61,-80.6,9.792,0.838,0,18.284,0.007,491.246,54.247,0.009,0,346.175,234.859,1.784,0.159,1682638.534,26.725,2.419,0.443,0.444,0.186,0.134,0.123,0.134,0.238,-0,0,0,0,0,0.001,0.007,62.4,30.582,85.028,0.004,1.604,14.796,1009.561,340.265,0.007,0.029
1.088,31.889,54.07,39.559,54.21,39.69,1.507,0,1.507,0.006,3.889,3.222,28.61,-80.6,9.792,0.671,0,21.902,0.008,491.071,54.071,0.009,0,346.469,234.785,1.79,0.16,1692653.203,26.726,2.446,0.443,0.443,0.186,0.134,0.123,0.107,0.19,-0,0,0,0,0,0.001,0.007,62.4,30.582,84.864,0.004,1.609,14.793,1009.51,340.263,0.008,0.03
1.098,32.434,54.467,39.459,54.608,39.645,1.546,0,1.546,0.006,3.925,3.835,28.61,-80.6,9.792,0.435,0,25.22,0.005,490.854,53.855,0.009,0,346.885,234.694,1.798,0.161,1705009.951,26.727,2.481,0.443,0.443,0.186,0.134,0.123,0.069,0.123,0,0,0,0,0,0.001,0.007,62.4,30.582,84.626,0.004,1.615,14.789,1009.446,340.261,0.01,0.03
1.113,33.259,55.06,39.291,55.205,39.585,1.606,0,1.606,0.006,3.99,4.821,28.61,-80.6,9.792,0.072,-0,27.462,0.022,490.529,53.53,0.009,0,347.533,234.557,1.811,0.163,1723583.529,26.728,2.535,0.443,0.443,0.186,0.134,0.123,0.011,0.02,-0,0,0,0,0,0.001,0.007,62.4,30.582,84.224,0.005,1.646,14.784,1009.349,340.258,0.015,0.03
1.136,34.514,55.945,39.01,56.096,39.511,1.697,0,1.697,0.006,4.116,6.268,28.61,-80.6,9.792,0.432,0,-24.533,-0.03,490.042,53.043,0.009,0,346.911,234.351,1.804,0.165,1751386.357,26.729,2.62,0.443,0.444,0.186,0.134,0.124,0.069,0.125,-0,0,0,0,0,-0.001,0.007,62.4,30.582,83.622,0.005,1.696,14.776,1009.202,340.253,0.023,0.03
1.149,35.286,56.48,38.838,56.636,39.471,1.754,0,1.754,0.006,4.208,7.037,28.61,-80.6,9.792,0.682,-0,-19.491,0.013,489.746,52.746,0.009,0,346.483,234.225,1.799,0.167,1768242.039,26.731,2.674,0.443,0.444,0.186,0.134,0.124,0.109,0.197,0,0,0,0,0,-0.001,0.007,62.4,30.582,83.317,0.005,1.726,14.771,1009.112,340.25,0.014,0.031
1.158,35.785,56.822,38.737,56.982,39.444,1.792,0,1.792,0.007,4.272,7.437,28.61,-80.6,9.792,0.811,0,-15.064,0.001,489.556,52.556,0.009,0,346.266,234.145,1.797,0.168,1778965.317,26.731,2.709,0.444,0.444,0.186,0.134,0.124,0.13,0.234,0,0,0,0,0,-0,0.007,62.4,30.582,83.164,0.006,1.724,14.767,1009.053,340.248,0.009,0.031
1.166,36.205,57.107,38.663,57.271,39.418,1.823,0,1.823,0.007,4.328,7.678,28.61,-80.6,9.792,0.884,0,-10.836,-0.002,489.397,52.398,0.009,0,346.144,234.077,1.796,0.169,1787909.238,26.732,2.738,0.444,0.445,0.186,0.134,0.124,0.142,0.255,0,0,0,0,0,-0,0.007,62.4,30.582,83.069,0.006,1.721,14.765,1009.004,340.246,0.007,0.031
1.172,36.589,57.366,38.606,57.533,39.389,1.853,0,1.853,0.007,4.38,7.817,28.61,-80.6,9.792,0.922,0,-6.709,0.007,489.253,52.253,0.009,0,346.084,234.016,1.796,0.17,1796032.735,26.733,2.764,0.444,0.445,0.186,0.134,0.124,0.148,0.266,-0,0,0,0,0,-0,0.007,62.4,30.582,83.01,0.006,1.719,14.762,1008.959,340.245,0.007,0.031
1.179,36.954,57.611,38.563,57.781,39.358,1.881,0,1.881,0.007,4.43,7.873,28.61,-80.6,9.792,0.93,0,-2.651,-0.002,489.115,52.116,0.009,0,346.073,233.958,1.797,0.17,1803740.533,26.733,2.788,0.444,0.445,0.186,0.134,0.124,0.149,0.268,0,0,0,0,0,-0,0.007,62.4,30.582,82.98,0.006,1.716,14.76,1008.916,340.243,0.006,0.032
1.185,37.315,57.852,38.531,58.025,39.323,1.908,0,1.908,0.007,4.479,7.854,28.61,-80.6,9.792,0.914,0,1.332,0.002,488.981,51.981,0.009,0,346.105,233.901,1.798,0.171,1811288.631,26.734,2.812,0.444,0.445,0.186,0.134,0.124,0.147,0.264,0,0,0,0,0,0,0.007,62.4,30.582,82.976,0.006,1.714,14.757,1008.874,340.242,0.006,0.032
1.191,37.679,58.094,38.509,58.27,39.284,1.937,0,1.937,0.007,4.528,7.762,28.61,-80.6,9.792,0.873,0,5.268,0.004,488.845,51.846,0.009,0,346.179,233.843,1.8,0.172,1818884.094,26.734,2.835,0.444,0.445,0.186,0.134,0.124,0.14,0.252,0,0,0,0,0,0,0.007,62.4,30.582,82.997,0.006,1.711,14.755,1008.831,340.24,0.006,0.032
1.198,38.058,58.345,38.497,58.524,39.238,1.966,0,1.966,0.007,4.578,7.592,28.61,-80.6,9.792,0.806,0,9.142,0.003,488.705,51.706,0.009,0,346.298,233.783,1.803,0.172,1826754.957,26.735,2.859,0.444,0.445,0.186,0.134,0.124,0.129,0.232,0,0,0,0,0,0,0.007,62.4,30.582,83.044,0.006,1.709,14.753,1008.786,340.239,0.007,0.032
1.205,38.468,58.615,38.494,58.797,39.186,1.999,0,1.999,0.007,4.63,7.332,28.61,-80.6,9.792,0.709,0,12.926,-0.001,488.554,51.554,0.009,0,346.47,233.719,1.807,0.173,1835217.821,26.735,2.885,0.444,0.445,0.186,0.134,0.124,0.113,0.204,0,0,0,0,0,0,0.008,62.4,30.582,83.122,0.006,1.706,14.75,1008.738,340.237,0.007,0.033
1.213,38.933,58.919,38.5,59.105,39.123,2.035,0,2.035,0.007,4.687,6.953,28.61,-80.6,9.792,0.573,0,16.589,0.008,488.383,51.384,0.009,0,346.71,233.646,1.812,0.174,1844741.646,26.736,2.914,0.444,0.445,0.186,0.134,0.124,0.091,0.165,0,0,0,0,0,0,0.008,62.4,30.582,83.239,0.007,1.701,14.747,1008.684,340.236,0.008,0.033
1.222,39.503,59.291,38.517,59.481,39.044,2.081,0,2.081,0.007,4.751,6.391,28.61,-80.6,9.792,0.378,-0,19.932,0.007,488.175,51.176,0.009,0,347.057,233.557,1.819,0.175,1856369.213,26.736,2.95,0.444,0.444,0.186,0.134,0.124,0.06,0.109,-0,0,0,0,0,0.001,0.008,62.4,30.582,83.417,0.007,1.696,14.743,1008.617,340.233,0.01,0.033
1.237,40.366,59.849,38.547,60.044,38.928,2.15,0,2.15,0.007,4.837,5.431,28.61,-80.6,9.792,0.055,-0,22.196,0.057,487.863,50.863,0.009,0,347.636,233.424,1.83,0.177,1873781.963,26.737,3.006,0.444,0.444,0.186,0.135,0.124,0.009,0.015,0,0,0,0,0,0.001,0.008,62.4,30.582,83.726,0.007,1.688,14.738,1008.516,340.23,0.014,0.033
1.258,41.676,60.687,38.561,60.887,38.772,2.257,0,2.257,0.007,4.939,4.04,28.61,-80.6,9.792,0.389,0,-18.993,0.009,487.394,50.395,0.009,0,347.06,233.224,1.824,0.179,1899802.67,26.739,3.093,0.445,0.445,0.186,0.135,0.124,0.062,0.113,-0,0,0,0,0,-0.001,0.008,62.4,30.582,84.189,0.005,1.67,14.729,1008.362,340.225,0.022,0.033
1.271,42.449,61.176,38.547,61.379,38.693,2.32,0,2.32,0.007,4.985,3.356,28.61,-80.6,9.792,0.593,0,-14.104,-0.008,487.121,50.121,0.009,0,346.712,233.107,1.821,0.181,1914927.124,26.74,3.145,0.445,0.445,0.186,0.135,0.124,0.095,0.173,0,0,0,0,0,-0,0.008,62.4,30.582,84.401,0.004,1.654,14.724,1008.271,340.222,0.013,0.034
1.28,42.968,61.502,38.523,61.706,38.643,2.362,0,2.362,0.007,5.012,3.047,28.61,-80.6,9.792,0.678,0,-9.757,0.008,486.938,49.939,0.009,0,346.569,233.028,1.82,0.182,1924996.495,26.741,3.18,0.445,0.445,0.186,0.135,0.124,0.108,0.197,-0,0,0,0,0,-0,0.008,62.4,30.582,84.503,0.003,1.643,14.721,1008.211,340.22,0.008,0.034
1.287,43.421,61.785,38.492,61.99,38.6,2.399,0,2.399,0.007,5.034,2.885,28.61,-80.6,9.792,0.718,0,-5.613,-0.002,486.78,49.781,0.009,0,346.504,232.961,1.82,0.183,1933723.724,26.742,3.21,0.445,0.446,0.186,0.135,0.124,0.115,0.209,0,0,0,0,0,-0,0.008,62.4,30.582,84.559,0.002,1.634,14.718,1008.157,340.218,0.007,0.034
1.294,43.847,62.05,38.455,62.255,38.559,2.434,0,2.434,0.007,5.053,2.825,28.61,-80.6,9.792,0.726,0,-1.546,0.002,486.632,49.632,0.009,0,346.494,232.897,1.82,0.183,1941890.015,26.742,3.238,0.445,0.446,0.186,0.135,0.124,0.116,0.212,0,0,0,0,0,-0,0.008,62.4,30.582,84.584,0.002,1.625,14.715,1008.107,340.216,0.007,0.035
1.301,44.267,62.309,38.412,62.516,38.518,2.468,0,2.468,0.007,5.072,2.852,28.61,-80.6,9.792,0.708,0,2.439,-0.002,486.486,49.487,0.009,0,346.529,232.834,1.822,0.184,1949891.404,26.743,3.265,0.445,0.446,0.186,0.135,0.124,0.113,0.206,0,0,0,0,0,0,0.008,62.4,30.582,84.581,0.002,1.617,14.712,1008.058,340.215,0.007,0.035
1.307,44.695,62.573,38.364,62.78,38.476,2.503,0,2.503,0.007,5.092,2.941,28.61,-80.6,9.792,0.675,0,6.387,0.007,486.338,49.339,0.009,0,346.592,232.771,1.824,0.185,1958056.697,26.743,3.293,0.445,0.446,0.186,0.135,0.124,0.108,0.196,-0,0,0,0,0,0,0.008,62.4,30.582,84.55,0.002,1.622,14.709,1008.008,340.213,0.007,0.035
1.315,45.142,62.846,38.305,63.054,38.433,2.539,0,2.539,0.007,5.114,3.125,28.61,-80.6,9.792,0.613,0,10.219,0.009,486.185,49.185,0.009,0,346.704,232.705,1.827,0.186,1966530.386,26.744,3.321,0.445,0.446,0.186,0.135,0.124,0.098,0.179,-0,0,0,0,0,0,0.008,62.4,30.582,84.491,0.002,1.627,14.707,1007.956,340.211,0.007,0.035
1.322,45.631,63.143,38.233,63.352,38.386,2.579,0,2.579,0.007,5.139,3.42,28.61,-80.6,9.792,0.518,0,13.94,0.022,486.017,49.018,0.009,0,346.874,232.633,1.831,0.187,1975741.991,26.744,3.352,0.445,0.446,0.186,0.135,0.125,0.083,0.151,0,0,0,0,0,0,0.008,62.4,30.582,84.396,0.002,1.633,14.703,1007.898,340.209,0.008,0.036
1.331,46.209,63.491,38.137,63.702,38.333,2.626,0,2.626,0.007,5.172,3.874,28.61,-80.6,9.792,0.376,0,17.43,0.021,485.821,48.821,0.009,0,347.127,232.548,1.836,0.188,1986568.303,26.745,3.388,0.445,0.446,0.186,0.135,0.125,0.06,0.11,0,0,0,0,0,0,0.008,62.4,30.582,84.252,0.002,1.639,14.7,1007.831,340.207,0.009,0.036
1.344,46.998,63.963,37.988,64.176,38.267,2.69,0,2.69,0.007,5.225,4.615,28.61,-80.6,9.792,0.151,-0,20.215,0.024,485.553,48.554,0.009,0,347.532,232.433,1.845,0.189,2001239.339,26.746,3.438,0.445,0.445,0.186,0.135,0.125,0.024,0.043,-0,0,0,0,0,0.001,0.008,62.4,30.582,84.016,0.003,1.648,14.695,1007.738,340.204,0.012,0.036
1.362,48.193,64.667,37.742,64.885,38.183,2.788,0,2.788,0.007,5.322,5.792,28.61,-80.6,9.792,0.195,-0,-19.67,0.024,485.153,48.153,0.009,0,347.467,232.26,1.846,0.191,2023175.01,26.747,3.516,0.446,0.446,0.186,0.135,0.125,0.031,0.058,-0,0,0,0,0,-0.001,0.008,62.4,30.582,83.636,0.004,1.657,14.687,1007.598,340.199,0.019,0.036
1.384,49.602,65.48,37.468,65.708,38.093,2.905,0,2.905,0.007,5.461,6.872,28.61,-80.6,9.792,0.494,0,-12.435,-0.001,484.686,47.687,0.009,0,346.955,232.058,1.841,0.194,2048611.334,26.749,3.609,0.446,0.446,0.186,0.135,0.125,0.079,0.145,0,0,0,0,0,-0,0.008,62.4,30.582,83.278,0.006,1.666,14.678,1007.433,340.194,0.022,0.037
1.393,50.157,65.797,37.374,66.028,38.056,2.951,0,2.951,0.007,5.521,7.172,28.61,-80.6,9.792,0.572,0,-8.07,-0.003,484.504,47.504,0.009,0,346.825,231.979,1.84,0.195,2058528.317,26.75,3.646,0.446,0.446,0.186,0.135,0.125,0.091,0.168,0,0,0,0,0,-0,0.008,62.4,30.582,83.191,0.007,1.669,14.674,1007.367,340.191,0.008,0.037
1.4,50.648,66.075,37.311,66.31,38.014,2.993,0,2.993,0.007,5.575,7.278,28.61,-80.6,9.792,0.594,0,-3.968,-0.004,484.343,47.344,0.009,0,346.791,231.91,1.841,0.195,2067235.357,26.75,3.678,0.446,0.447,0.186,0.135,0.125,0.095,0.174,0,0,0,0,0,-0,0.008,62.4,30.582,83.146,0.007,1.672,14.671,1007.31,340.189,0.007,0.037
1.407,51.118,66.34,37.266,66.578,37.967,3.032,0,3.032,0.007,5.626,7.261,28.61,-80.6,9.792,0.581,0,0.026,0.009,484.19,47.191,0.009,0,346.819,231.843,1.843,0.196,2075562.372,26.751,3.708,0.446,0.447,0.186,0.135,0.125,0.093,0.171,-0,0,0,0,0,0,0.009,62.4,30.582,83.133,0.008,1.682,14.668,1007.255,340.188,0.007,0.037
1.414,51.597,66.608,37.234,66.849,37.913,3.073,0,3.073,0.007,5.678,7.142,28.61,-80.6,9.792,0.539,0,3.899,-0.002,484.035,47.035,0.009,0,346.896,231.776,1.845,0.197,2083983.993,26.752,3.739,0.446,0.447,0.186,0.136,0.125,0.086,0.159,-0,0,0,0,0,0,0.009,62.4,30.582,83.147,0.008,1.692,14.665,1007.199,340.186,0.007,0.038
1.422,52.11,66.894,37.213,67.139,37.85,3.117,0,3.117,0.007,5.732,6.911,28.61,-80.6,9.792,0.467,0,7.674,0.008,483.869,46.87,0.009,0,347.028,231.704,1.848,0.198,2092964.195,26.752,3.771,0.446,0.447,0.186,0.136,0.125,0.074,0.138,0,0,0,0,0,0,0.009,62.4,30.582,83.192,0.008,1.702,14.661,1007.138,340.184,0.008,0.038
1.431,52.7,67.222,37.203,67.471,37.772,3.168,0,3.168,0.007,5.792,6.532,28.61,-80.6,9.792,0.354,0,11.214,-0.001,483.679,46.68,0.009,0,347.232,231.622,1.853,0.199,2103243.592,26.753,3.808,0.446,0.447,0.186,0.136,0.125,0.056,0.104,0,0,0,0,0,0,0.009,62.4,30.582,83.276,0.008,1.714,14.657,1007.069,340.181,0.009,0.038
1.442,53.48,67.652,37.203,67.905,37.668,3.235,0,3.235,0.007,5.863,5.902,28.61,-80.6,9.792,0.173,0,14.213,0.018,483.43,46.431,0.009,0,347.558,231.513,1.86,0.2,2116706.201,26.754,3.857,0.446,0.447,0.186,0.136,0.125,0.027,0.05,0,0,0,0,0,0,0.009,62.4,30.582,83.425,0.007,1.729,14.652,1006.978,340.178,0.012,0.038
1.46,54.658,68.297,37.197,68.556,37.521,3.337,0,3.337,0.007,5.957,4.919,28.61,-80.6,9.792,0.096,0,-14.555,0.002,483.056,46.057,0.009,0,347.705,231.351,1.865,0.202,2136764.513,26.755,3.932,0.447,0.447,0.186,0.136,0.125,0.015,0.029,-0,0,0,0,0,-0,0.009,62.4,30.582,83.683,0.007,1.729,14.645,1006.84,340.174,0.017,0.039
1.486,56.446,69.263,37.127,69.528,37.328,3.494,0,3.494,0.007,6.068,3.869,28.61,-80.6,9.792,0.361,-0,-7.542,0.022,482.496,45.496,0.009,0,347.255,231.106,1.861,0.205,2166621.042,26.756,4.047,0.447,0.447,0.186,0.136,0.125,0.057,0.107,-0,0,0,0,0,-0,0.009,62.4,30.582,83.989,0.006,1.699,14.633,1006.63,340.167,0.026,0.039
1.495,57.123,69.625,37.088,69.892,37.261,3.553,0,3.553,0.007,6.104,3.587,28.61,-80.6,9.792,0.427,-0,-3.363,0.023,482.286,45.286,0.009,0,347.147,231.014,1.861,0.206,2177764.329,26.758,4.09,0.447,0.447,0.186,0.136,0.126,0.068,0.127,0,0,0,0,0,-0,0.009,62.4,30.582,84.042,0.005,1.689,14.629,1006.55,340.164,0.01,0.039
1.504,57.735,69.95,37.032,70.218,37.2,3.607,0,3.607,0.007,6.135,3.534,28.61,-80.6,9.792,0.435,-0,0.704,0.024,482.097,45.097,0.009,0,347.139,230.932,1.862,0.207,2187807.208,26.759,4.129,0.447,0.447,0.186,0.136,0.126,0.069,0.13,0,0,0,0,0,0,0.009,62.4,30.582,84.053,0.004,1.689,14.625,1006.479,340.161,0.009,0.039
1.513,58.328,70.263,36.968,70.533,37.141,3.659,0,3.659,0.007,6.165,3.589,28.61,-80.6,9.792,0.417,-0,4.665,0.007,481.914,44.915,0.009,0,347.175,230.852,1.864,0.208,2197531.963,26.759,4.167,0.447,0.447,0.186,0.136,0.126,0.066,0.124,0,0,0,0,0,0,0.009,62.4,30.582,84.03,0.003,1.701,14.621,1006.409,340.159,0.008,0.04
1.521,58.948,70.588,36.888,70.859,37.081,3.713,0,3.713,0.007,6.197,3.779,28.61,-80.6,9.792,0.366,0,8.485,0.026,481.725,44.725,0.009,0,347.272,230.769,1.867,0.209,2207618.662,26.76,4.205,0.447,0.447,0.186,0.136,0.126,0.058,0.108,0,0,0,0,0,0,0.009,62.4,30.582,83.972,0.002,1.713,14.617,1006.336,340.157,0.009,0.04
1.531,59.651,70.954,36.783,71.227,37.014,3.775,0,3.775,0.007,6.236,4.134,28.61,-80.6,9.792,0.273,0,12.024,0.021,481.51,44.511,0.009,0,347.443,230.675,1.871,0.21,2218984.456,26.761,4.249,0.447,0.447,0.186,0.136,0.126,0.043,0.08,-0,0,0,0,0,0,0.009,62.4,30.582,83.869,0.002,1.726,14.612,1006.254,340.154,0.01,0.04
1.545,60.593,71.44,36.622,71.717,36.932,3.858,0,3.858,0.007,6.295,4.77,28.61,-80.6,9.792,0.111,0,14.864,0.046,481.225,44.226,0.009,0,347.738,230.55,1.878,0.211,2234097.932,26.761,4.308,0.448,0.448,0.186,0.136,0.126,0.018,0.033,-0,0,0,0,0,0,0.009,62.4,30.582,83.688,0.002,1.745,14.606,1006.143,340.15,0.013,0.041
1.564,62.019,72.164,36.363,72.448,36.82,3.984,0,3.984,0.007,6.401,5.784,28.61,-80.6,9.792,0.138,-0,-14.193,0.045,480.797,43.797,0.009,0,347.704,230.362,1.88,0.214,2256708.422,26.763,4.398,0.448,0.448,0.185,0.136,0.126,0.022,0.041,-0,0,0,0,0,-0,0.009,62.4,30.582,83.388,0.005,1.777,14.597,1005.976,340.145,0.02,0.041
1.588,63.707,73.006,36.093,73.299,36.688,4.134,0.001,4.134,0.007,6.547,6.583,28.61,-80.6,9.792,0.321,0,-7.331,-0.02,480.296,43.296,0.009,0,347.398,230.141,1.879,0.216,2283066.958,26.764,4.505,0.448,0.448,0.185,0.136,0.126,0.051,0.096,0,0,0,0,0,-0,0.009,62.4,30.582,83.127,0.007,1.816,14.586,1005.778,340.138,0.023,0.041
1.598,64.426,73.361,35.998,73.658,36.627,4.199,0.001,4.199,0.007,6.613,6.76,28.61,-80.6,9.792,0.356,0,-3.141,0.002,480.084,43.084,0.009,0,347.342,230.048,1.88,0.217,2294170.803,26.766,4.551,0.448,0.448,0.185,0.136,0.126,0.057,0.106,0,0,0,0,0,-0,0.009,62.4,30.582,83.076,0.007,1.833,14.581,1005.694,340.135,0.01,0.048
1.607,65.106,73.693,35.932,73.995,36.559,4.26,0.001,4.26,0.007,6.675,6.743,28.61,-80.6,9.792,0.348,0,0.862,0.002,479.884,42.885,0.009,0,347.363,229.96,1.881,0.218,2304530.109,26.767,4.593,0.448,0.448,0.185,0.137,0.126,0.055,0.104,0,0,0,0,0,0,0.009,62.4,30.582,83.066,0.006,1.833,14.577,1005.614,340.132,0.009,0.049
1.616,65.797,74.029,35.883,74.335,36.483,4.323,0.001,4.323,0.007,6.738,6.586,28.61,-80.6,9.792,0.307,0,4.69,-0.007,479.683,42.683,0.009,0,347.441,229.871,1.884,0.219,2314983.894,26.767,4.636,0.448,0.448,0.185,0.137,0.126,0.049,0.093,-0,0,0,0,0,0,0.01,62.4,30.582,83.092,0.006,1.828,14.572,1005.533,340.13,0.009,0.049
1.627,66.578,74.407,35.848,74.717,36.389,4.395,0.001,4.395,0.007,6.806,6.248,28.61,-80.6,9.792,0.225,0,8.217,-0.019,479.456,42.456,0.009,0,347.594,229.77,1.888,0.22,2326714.096,26.768,4.684,0.448,0.448,0.185,0.137,0.126,0.036,0.068,-0,0,0,0,0,0,0.01,62.4,30.582,83.161,0.005,1.822,14.567,1005.442,340.127,0.011,0.049
1.641,67.639,74.916,35.82,75.232,36.257,4.492,0.001,4.492,0.007,6.89,5.61,28.61,-80.6,9.792,0.074,-0,10.843,-0.049,479.149,42.15,0.009,0,347.871,229.635,1.895,0.222,2342517.82,26.769,4.749,0.449,0.449,0.185,0.137,0.126,0.012,0.022,0,0,0,0,0,0,0.01,62.4,30.582,83.301,0.004,1.814,14.56,1005.317,340.122,0.014,0.049
1.662,69.245,75.679,35.763,76.002,36.073,4.64,0.001,4.64,0.007,6.999,4.722,28.61,-80.6,9.792,0.123,-0,-9.388,0.013,478.689,41.69,0.009,0,347.8,229.431,1.897,0.224,2365984.266,26.77,4.847,0.449,0.449,0.185,0.137,0.127,0.019,0.037,0,0,0,0,0,-0,0.01,62.4,30.582,83.531,0,1.762,14.55,1005.129,340.116,0.021,0.05
1.685,70.984,76.495,35.646,76.824,35.894,4.801,0.001,4.801,0.007,7.098,4.209,28.61,-80.6,9.792,0.221,-0,-3.93,-0.026,478.197,41.197,0.009,0,347.643,229.212,1.898,0.226,2390883.701,26.772,4.953,0.449,0.449,0.185,0.137,0.127,0.035,0.066,0,0,0,0,0,-0,0.01,62.4,30.582,83.692,0.001,1.673,14.539,1004.925,340.109,0.023,0.05
1.698,71.97,76.953,35.554,77.285,35.798,4.893,0.001,4.893,0.007,7.152,4.166,28.61,-80.6,9.792,0.219,0,0.112,-0.044,477.92,40.92,0.009,0,347.654,229.089,1.9,0.228,2404835.892,26.773,5.013,0.449,0.449,0.185,0.137,0.127,0.035,0.066,-0,0,0,0,0,0,0.01,62.4,30.582,83.715,0.005,1.623,14.532,1004.809,340.105,0.013,0.05
1.711,72.996,77.425,35.439,77.76,35.698,4.988,0.001,4.988,0.007,7.208,4.293,28.61,-80.6,9.792,0.185,-0,3.785,-0.001,477.633,40.634,0.009,0,347.724,228.961,1.903,0.229,2419355.769,26.774,5.075,0.449,0.449,0.185,0.137,0.127,0.029,0.057,-0,0,0,0,0,0,0.01,62.4,30.582,83.687,0.008,1.611,14.526,1004.689,340.101,0.013,0.05
1.727,74.2,77.972,35.181,78.31,35.486,5.1,0.001,5.1,0.007,7.277,4.648,28.61,-80.6,9.792,0.101,0,6.941,-0.014,477.303,40.303,0.009,0,347.885,228.814,1.908,0.231,2436216.514,26.728,5.148,0.449,0.449,0.185,0.137,0.127,0.016,0.03,0,0,0,0,0,0,0.01,62.4,30.582,83.6,0.008,1.606,14.518,1004.548,340.097,0.015,0.051
1.75,76.022,78.781,34.677,79.127,35.086,5.271,0.001,5.271,0.007,7.393,5.345,28.61,-80.6,9.792,0.059,-0,-7.206,0.091,476.807,39.808,0.009,0,347.976,228.592,1.913,0.233,2461218.892,26.614,5.258,0.45,0.45,0.185,0.137,0.127,0.009,0.018,-0,0,0,0,0,-0,0.01,62.4,30.582,83.42,0.008,1.599,14.506,1004.334,340.089,0.023,0.051
1.785,78.79,79.972,34.022,80.331,34.453,5.532,0.001,5.532,0.007,7.586,5.434,28.61,-80.6,9.792,0.068,-0,-2.69,-0.003,476.064,39.064,0.009,0,347.985,228.259,1.919,0.237,2498655.555,26.443,5.424,0.45,0.45,0.185,0.137,0.127,0.011,0.021,-0,0,0,0,0,-0,0.01,62.4,30.582,83.243,0.005,1.753,14.488,1004.009,340.079,0.035,0.051
1.812,80.997,80.892,33.424,81.261,33.848,5.742,0.001,5.742,0.007,7.734,5.34,28.61,-80.6,9.792,0.05,-0,-0.632,0.063,475.478,38.479,0.009,0,348.037,227.997,1.924,0.24,2527383.991,26.259,5.553,0.45,0.45,0.185,0.138,0.127,0.008,0.015,-0,0,0,0,0,-0,0.01,62.4,30.582,83.214,0.003,1.821,14.474,1003.75,340.07,0.027,0.051
1.853,84.355,82.235,32.424,82.617,32.792,6.065,0.001,6.065,0.007,7.943,4.899,28.61,-80.6,9.792,0.02,0,0.225,-0.082,474.63,37.63,0.009,0,348.12,227.614,1.931,0.244,2568790.243,25.916,5.743,0.451,0.451,0.185,0.138,0.128,0.003,0.007,-0,0,0,0,0,0,0.011,62.4,30.582,83.249,0.012,1.822,14.452,1003.357,340.057,0.041,0.052
1.903,88.505,83.75,30.07,84.148,30.456,6.468,0.001,6.468,0.007,8.175,4.829,28.61,-80.6,9.792,0.022,0,-0.463,-0.059,473.617,36.617,0.009,0,348.151,227.156,1.939,0.248,2615276.805,24.979,5.96,0.451,0.451,0.185,0.138,0.128,0.003,0.006,0,0,0,0,0,-0,0.011,62.4,30.582,83.24,-0.004,1.76,14.425,1002.87,340.04,0.05,0.052
1.953,92.726,85.085,26.529,85.498,26.869,6.882,0.001,6.882,0.007,8.394,4.259,28.61,-80.6,9.792,0.007,0,-1.152,-0.241,472.68,35.681,0.009,0,348.207,226.731,1.947,0.252,2656108.328,23.442,6.155,0.452,0.452,0.185,0.138,0.128,0.001,0.002,0,0,0,0,0,-0,0.011,62.4,30.582,83.232,0.001,1.691,14.397,1002.375,340.024,0.05,0.052
2.003,97.005,86.096,20.093,86.522,20.397,7.306,0.001,7.306,0.007,8.569,3.507,28.61,-80.6,9.792,0.008,-0,1.596,0.019,472.013,35.013,0.009,0,348.229,226.427,1.952,0.255,2687006.475,20.509,6.305,0.452,0.452,0.185,0.138,0.128,0.001,0.003,-0,0,0,0,0,0,0.011,62.4,30.582,83.227,0.019,1.687,14.369,1001.873,340.007,0.05,0.052
2.053,101.325,86.705,12.029,87.14,12.376,7.738,0.001,7.738,0.007,8.69,2.913,28.61,-80.6,9.792,0.051,-0,-5.574,-0.014,471.527,34.528,0.009,0,348.166,226.205,1.955,0.257,2705974.421,16.78,6.399,0.452,0.452,0.185,0.138,0.129,0.008,0.016,-0,0,0,0,0,-0,0.011,62.4,30.582,83.072,0.013,1.872,14.341,1001.366,339.99,0.05,0.053
2.103,105.666,86.904,3.96,87.346,4.315,8.174,0.001,8.174,0.007,8.78,1.714,28.61,-80.6,9.792,0.004,0,-0.183,-0.073,471.042,34.042,0.009,0,348.256,225.983,1.96,0.258,2712018.348,12.959,6.43,0.452,0.452,0.185,0.138,0.129,0.001,0.001,0,0,0,0,0,-0,0.011,62.4,30.582,82.898,0.012,2.003,14.313,1000.857,339.973,0.05,0.053
2.153,110.006,86.701,-3.992,87.148,4.027,8.614,0.001,8.614,0.007,8.82,0.525,28.61,-80.6,9.792,0.039,0,0.928,-0.096,470.556,33.557,0.009,0,348.189,225.76,1.962,0.257,2705190.399,9.138,6.398,0.452,0.452,0.185,0.138,0.129,0.006,0.012,-0,0,0,0,0,0,0.011,62.4,30.582,82.854,0.006,2.046,14.285,1000.348,339.956,0.05,0.053
2.203,114.326,86.102,-11.872,86.551,11.877,9.055,0.001,9.055,0.007,8.805,0.338,28.61,-80.6,9.792,0.014,0,0.573,0.041,470.071,33.072,0.008,0,348.221,225.537,1.966,0.255,2685832.302,5.317,6.306,0.452,0.452,0.185,0.138,0.128,0.002,0.004,0,0,0,0,0,0,0.011,62.4,30.582,82.831,0.01,2.041,14.257,999.842,339.939,0.05,0.053
2.242,117.633,85.356,-19.23,85.804,19.274,9.394,0.001,9.394,0.007,8.751,1.305,28.61,-80.6,9.792,0.019,0,3.873,0.21,469.999,33,0.008,0,348.194,225.504,1.966,0.253,2662543.544,1.719,6.195,0.452,0.452,0.185,0.138,0.128,0.003,0.006,0,0,0,0,0,0,0.011,62.4,30.582,82.755,0.001,2.168,14.235,999.454,339.926,0.039,0.054
2.29,121.677,84.273,-22.556,84.719,22.6,9.809,0.001,9.809,0.007,8.677,1.41,28.61,-80.6,9.792,0.056,0,1.107,0.028,469.999,33,0.008,0,348.104,225.504,1.965,0.25,2628182.279,0,6.034,0.451,0.451,0.185,0.138,0.128,0.009,0.017,0,0,0,0,0,0,0.011,62.4,30.582,82.602,0.005,2.165,14.209,998.979,339.91,0.048,0.054
2.324,124.539,83.508,-22.299,83.953,22.35,10.104,0.001,10.104,0.008,8.63,1.517,28.61,-80.6,9.792,0.025,0,1.486,-0.026,469.999,33,0.008,0,348.143,225.504,1.965,0.248,2603798.913,0,5.92,0.451,0.451,0.185,0.138,0.128,0.004,0.008,-0,0,0,0,0,0,0.011,62.4,30.582,82.618,0.005,2.128,14.19,998.644,339.898,0.034,0.054
2.374,128.686,82.403,-21.899,82.845,21.985,10.534,0.001,10.534,0.008,8.543,1.95,28.61,-80.6,9.792,0.089,-0,2.66,0.097,469.999,33,0.008,0,348.005,225.504,1.963,0.244,2568854.505,0,5.759,0.451,0.451,0.185,0.138,0.128,0.014,0.028,-0,0,0,0,0,0,0.011,62.4,30.582,82.704,0.006,2.154,14.164,998.157,339.882,0.05,0.054
2.398,130.659,81.879,-21.742,82.319,21.827,10.738,0.001,10.738,0.008,8.495,1.921,28.61,-80.6,9.792,0.085,0,4.323,0.025,469.999,33,0.008,0,348.001,225.504,1.963,0.243,2552454.26,0,5.685,0.451,0.451,0.185,0.138,0.128,0.013,0.026,0,0,0,0,0,0,0.011,62.4,30.582,82.642,0.002,2.213,14.151,997.926,339.874,0.024,0.055
2.424,132.767,81.319,-21.644,81.757,21.685,10.957,0.001,10.957,0.008,8.453,1.336,28.61,-80.6,9.792,0.055,0,-4.68,-0.01,469.999,33,0.008,0,348.042,225.504,1.964,0.241,2534484.066,0,5.604,0.45,0.45,0.185,0.138,0.128,0.009,0.017,-0,0,0,0,0,-0,0.01,62.4,30.582,82.5,0.007,2.16,14.137,997.679,339.866,0.026,0.055
2.462,135.882,80.489,-21.399,80.927,21.436,11.282,0.002,11.282,0.008,8.413,1.258,28.61,-80.6,9.792,0.067,-0,2.969,-0.052,469.999,33,0.008,0,348.002,225.504,1.963,0.239,2507934.581,0,5.485,0.45,0.45,0.185,0.137,0.127,0.011,0.021,0,0,0,0,0,0,0.01,62.4,30.582,82.447,0.011,2.072,14.117,997.313,339.854,0.039,0.055
2.481,137.428,80.078,-21.27,80.516,21.309,11.444,0.002,11.444,0.008,8.391,1.291,28.61,-80.6,9.792,0.055,0,5.276,-0.046,469.999,33,0.008,0,348.015,225.504,1.963,0.238,2494808.231,0,5.426,0.45,0.45,0.185,0.137,0.127,0.009,0.017,0,0,0,0,0,0,0.01,62.4,30.582,82.527,0.005,2.035,14.107,997.132,339.848,0.019,0.055
2.51,139.732,79.467,-21.022,79.904,21.097,11.685,0.002,11.685,0.008,8.346,1.776,28.61,-80.6,9.792,0.08,0,-3.864,-0.012,469.999,33,0.008,0,347.958,225.504,1.962,0.236,2475297.751,0,5.341,0.45,0.45,0.185,0.137,0.127,0.013,0.024,-0,0,0,0,0,-0,0.01,62.4,30.582,82.685,-0.005,1.989,14.092,996.862,339.838,0.029,0.056
2.537,141.874,78.901,-20.836,79.336,20.924,11.91,0.002,11.91,0.008,8.293,1.912,28.61,-80.6,9.792,0.123,0,0.753,-0.051,469.999,33,0.008,0,347.869,225.504,1.961,0.234,2457236.056,0,5.262,0.45,0.45,0.185,0.137,0.127,0.02,0.038,-0,0,0,0,0,0,0.01,62.4,30.582,82.735,-0.006,1.959,14.078,996.611,339.83,0.027,0.056
2.556,143.351,78.511,-20.74,78.944,20.814,12.066,0.002,12.066,0.008,8.258,1.751,28.61,-80.6,9.792,0.085,0,4.027,-0.039,469.999,33,0.008,0,347.929,225.504,1.962,0.233,2444793.403,0,5.208,0.45,0.45,0.185,0.137,0.127,0.013,0.027,0,0,0,0,0,0,0.01,62.4,30.582,82.684,0.003,1.94,14.068,996.437,339.824,0.019,0.056
2.584,145.554,77.929,-20.631,78.36,20.67,12.298,0.002,12.298,0.008,8.216,1.271,28.61,-80.6,9.792,0.04,0,-4.408,-0.19,469.999,33,0.008,0,347.996,225.504,1.963,0.231,2426285.519,0,5.128,0.449,0.449,0.185,0.137,0.127,0.006,0.013,-0,0,0,0,0,-0,0.01,62.4,30.582,82.541,0.022,1.918,14.054,996.179,339.816,0.028,0.057
2.627,148.828,77.061,-20.375,77.493,20.417,12.644,0.002,12.644,0.008,8.171,1.312,28.61,-80.6,9.792,0.023,-0,1.282,0.043,469.999,33,0.008,0,348.009,225.504,1.963,0.229,2398949.82,0,5.011,0.449,0.449,0.185,0.137,0.127,0.004,0.008,-0,0,0,0,0,0,0.01,62.4,30.582,82.459,0.019,1.919,14.033,995.795,339.803,0.042,0.057
2.66,151.425,76.375,-20.155,76.806,20.211,12.92,0.002,12.92,0.008,8.127,1.497,28.61,-80.6,9.792,0.034,0,-1.322,0.039,469.999,33,0.008,0,347.975,225.504,1.963,0.227,2377397.947,0,4.92,0.449,0.449,0.185,0.137,0.127,0.005,0.011,-0,0,0,0,0,-0,0.01,62.4,30.582,82.524,-0.008,1.947,14.016,995.49,339.792,0.034,0.057
2.71,155.218,75.375,-19.902,75.803,19.943,13.324,0.002,13.324,0.008,8.044,1.291,28.61,-80.6,9.792,0.02,0,-4.812,-0.52,469.999,33,0.008,0,347.981,225.504,1.963,0.224,2346056.65,0,4.789,0.449,0.449,0.185,0.137,0.127,0.003,0.006,0,0,0,0,0,-0,0.01,62.4,30.582,82.466,0.002,2.012,13.991,995.045,339.777,0.05,0.058
2.755,158.528,74.502,-19.673,74.928,19.709,13.678,0.002,13.678,0.008,7.985,1.189,28.61,-80.6,9.792,0.045,0,-1.789,-0.291,469.999,33,0.008,0,347.92,225.504,1.962,0.221,2318631.054,0,4.676,0.448,0.448,0.185,0.137,0.126,0.007,0.014,0,0,0,0,0,-0,0.01,62.4,30.582,82.282,0.028,2.04,13.97,994.657,339.764,0.044,0.058
