# Time (s),Altitude (m),Vertical velocity (m/s),Vertical acceleration (m/s²),Total velocity (m/s),Total acceleration (m/s²),Position East of launch (m),Position North of launch (m),Lateral distance (m),Lateral direction (°),Lateral velocity (m/s),Lateral acceleration (m/s²),Latitude (°),Longitude (°),Gravitational acceleration (m/s²),Angle of attack (°),Roll rate (°/s),Pitch rate (°/s),Yaw rate (°/s),Mass (g),Motor mass (g),Longitudinal moment of inertia (kg·m²),Rotational moment of inertia (kg·m²),CP location (mm),CG location (mm),Stability margin calibers (​),Mach number (​),Reynolds number (​),Thrust (N),Drag force (N),Drag coefficient (​),Axial drag coefficient (​),Friction drag coefficient (​),Pressure drag coefficient (​),Base drag coefficient (​),Normal force coefficient (​),Pitch moment coefficient (​),Yaw moment coefficient (​),Side force coefficient (​),Roll moment coefficient (​),Roll forcing coefficient (​),Roll damping coefficient (​),Pitch damping coefficient (​),Coriolis acceleration (m/s²),Reference length (mm),Reference area (cm²),Vertical orientation (zenith) (°),Lateral orientation (azimuth) (°),Wind velocity (m/s),Air temperature (°C),Air pressure (mbar),Speed of sound (m/s),Simulation time step (s),Computation time (s)
0.01,-0,-0.09,-9.039,0.09,9.039,0,0,0,0,0,0,28.61,-80.6,9.792,92.416,0,0,0,350.128,27.091,0.001,0,NaN,148.535,NaN,0.006,39143.214,0.264,-0,0.852,-0,0.407,0.325,0.12,NaN,NaN,NaN,NaN,NaN,NaN,NaN,NaN,0,34.4,9.294,90,0,2.143,15,1013.25,340.389,0.01,0.001
0.02,-0,-0.075,-7.531,0.075,7.531,0,0,0,0,0,0,28.61,-80.6,9.792,92.038,0,0,0,350.119,27.083,0.001,0,NaN,148.533,NaN,0.006,38653.34,0.792,-0,0.853,-0,0.408,0.325,0.12,NaN,NaN,NaN,NaN,NaN,NaN,NaN,NaN,0,34.4,9.294,90,0,2.116,15,1013.25,340.389,0.01,0.001
0.03,-0,-0.06,-6.024,0.06,6.024,0,0,0,0,0,0,28.61,-80.6,9.792,91.651,0,0,0,350.111,27.074,0.001,0,NaN,148.53,NaN,0.006,38165.187,1.319,-0,0.855,-0,0.41,0.325,0.12,NaN,NaN,NaN,NaN,NaN,NaN,NaN,NaN,0,34.4,9.294,90,0,2.09,15,1013.25,340.389,0.01,0.001
0.04,-0,-0.045,-4.516,0.045,4.516,0,0,0,0,0,0,28.61,-80.6,9.792,91.254,0,0,0,350.102,27.066,0.001,0,NaN,148.528,NaN,0.006,37678.822,1.847,-0,0.856,-0,0.411,0.325,0.12,NaN,NaN,NaN,NaN,NaN,NaN,NaN,NaN,0,34.4,9.294,90,0,2.064,15,1013.25,340.389,0.01,0.002
0.05,-0,-0.023,-2.338,0.023,2.338,0,0,0,0,0,0,28.61,-80.6,9.792,90.658,0,0,0,350.055,27.018,0.001,0,NaN,148.514,NaN,0.006,37192.71,2.609,-0,0.857,-0,0.413,0.324,0.12,NaN,NaN,NaN,NaN,NaN,NaN,NaN,NaN,0,34.4,9.294,90,0,2.038,15,1013.25,340.389,0.01,0.002
0.06,0,0.005,0.51,0.005,0.51,0,0,0,0,0,0,28.61,-80.6,9.792,89.859,0,0,0,350.007,26.971,0.001,0,NaN,148.5,NaN,0.006,37649.404,3.606,0,0.856,0,0.411,0.325,0.12,NaN,NaN,NaN,NaN,NaN,NaN,NaN,NaN,0,34.4,9.294,90,0,2.063,15,1013.25,340.389,0.01,0.002
0.07,0,0.039,3.359,0.039,3.359,0,0,0,0,0,0,28.61,-80.6,9.792,88.939,0,0,0,349.96,26.923,0.001,0,NaN,148.486,NaN,0.006,38114.857,4.602,0,0.855,0,0.41,0.325,0.12,NaN,NaN,NaN,NaN,NaN,NaN,NaN,NaN,0,34.4,9.294,90,0,2.088,15,1013.25,340.389,0.01,0.002
0.08,0.001,0.101,6.209,0.101,6.209,0,0,0,0,0,0,28.61,-80.6,9.792,87.27,0,0,0,349.912,26.876,0.001,0,NaN,148.473,NaN,0.006,38611.17,5.599,0,0.853,0,0.408,0.325,0.12,NaN,NaN,NaN,NaN,NaN,NaN,NaN,NaN,0,34.4,9.294,90,0,2.113,15,1013.25,340.389,0.01,0.003
0.09,0.002,0.191,9.06,0.191,9.06,0,0,0,0,0,0,28.61,-80.6,9.792,84.886,0,0,0,349.865,26.828,0.001,0,NaN,148.459,NaN,0.006,39182.334,6.596,0,0.852,0.001,0.407,0.325,0.12,NaN,NaN,NaN,NaN,NaN,NaN,NaN,NaN,0,34.4,9.294,90,0,2.138,15,1013.25,340.389,0.01,0.003
0.1,0.005,0.31,11.911,0.31,11.911,0,0,0,0,0,0,28.61,-80.6,9.792,81.834,0,0,0,349.817,26.781,0.001,0,NaN,148.445,NaN,0.006,39889.897,7.592,0,0.85,0.006,0.404,0.326,0.12,NaN,NaN,NaN,NaN,NaN,NaN,NaN,NaN,0,34.4,9.294,90,0,2.163,15,1013.249,340.389,0.01,0.003
0.11,0.009,0.458,14.763,0.458,14.763,0,0,0,0,0,0,28.61,-80.6,9.792,78.114,0,0,0,349.769,26.733,0.001,0,NaN,148.431,NaN,0.007,40591.738,8.589,0,0.848,0.017,0.402,0.326,0.12,NaN,NaN,NaN,NaN,NaN,NaN,NaN,NaN,0,34.4,9.294,90,0,2.176,15,1013.249,340.389,0.01,0.003
0.12,0.014,0.636,17.752,0.636,17.752,0,0,0,0,0,0,28.61,-80.6,9.792,73.811,0,0,0,349.685,26.648,0.001,0,NaN,148.407,NaN,0.007,41607.115,9.632,0,0.846,0.04,0.4,0.326,0.12,NaN,NaN,NaN,NaN,NaN,NaN,NaN,NaN,0,34.4,9.294,90,0,2.189,15,1013.248,340.389,0.01,0.003
0.13,0.022,0.855,21.98,0.855,21.98,0,0,0,0,0,0,28.61,-80.6,9.792,68.774,0,0,0,349.545,26.509,0.001,0,NaN,148.366,NaN,0.007,43118.503,11.106,0,0.842,0.084,0.395,0.327,0.12,NaN,NaN,NaN,NaN,NaN,NaN,NaN,NaN,0,34.4,9.294,90,0,2.202,15,1013.247,340.389,0.01,0.004
0.14,0.032,1.12,26.51,1.12,26.51,0,0,0,0,0,0,28.61,-80.6,9.792,63.17,0,0,0,349.405,26.369,0.001,0,NaN,148.325,NaN,0.007,45306.421,12.685,0.001,0.838,0.157,0.39,0.328,0.12,NaN,NaN,NaN,NaN,NaN,NaN,NaN,NaN,0,34.4,9.294,90,0,2.215,15,1013.246,340.389,0.01,0.004
0.15,0.044,1.431,31.044,1.431,31.044,0,0,0,0,0,0,28.61,-80.6,9.792,57.293,0,0,0,349.265,26.229,0.001,0,NaN,148.285,NaN,0.008,48327.864,14.264,0.001,0.831,0.258,0.383,0.329,0.12,NaN,NaN,NaN,NaN,NaN,NaN,NaN,NaN,0,34.4,9.294,90,0,2.228,15,1013.245,340.389,0.01,0.004
0.16,0.06,1.786,35.581,1.786,35.581,0,0,0,0,0,0,28.61,-80.6,9.792,51.66,0,0,0,349.125,26.089,0.001,0,NaN,148.244,NaN,0.008,52563.591,15.843,0.002,0.824,0.376,0.374,0.33,0.12,NaN,NaN,NaN,NaN,NaN,NaN,NaN,NaN,0,34.4,9.294,90,0,2.259,15,1013.243,340.389,0.01,0.004
0.17,0.08,2.188,40.12,2.188,40.12,0,0,0,0,0,0,28.61,-80.6,9.792,46.306,0,0,0,348.986,25.949,0.001,0,NaN,148.203,NaN,0.009,57798.77,17.421,0.003,0.816,0.501,0.364,0.332,0.12,NaN,NaN,NaN,NaN,NaN,NaN,NaN,NaN,0,34.4,9.294,90,0,2.29,14.999,1013.241,340.389,0.01,0.005
0.18,0.104,2.634,44.662,2.634,44.662,0,0,0,0,0,0,28.61,-80.6,9.792,41.378,0,0,0,348.846,25.809,0.001,0,NaN,148.162,NaN,0.01,64072.756,19,0.004,0.808,0.621,0.354,0.334,0.12,NaN,NaN,NaN,NaN,NaN,NaN,NaN,NaN,0,34.4,9.294,90,0,2.32,14.999,1013.238,340.388,0.01,0.005
0.19,0.133,3.126,49.206,3.126,49.206,0,0,0,0,0,0,28.61,-80.6,9.792,36.948,0,0,0,348.706,25.669,0.001,0,NaN,148.121,NaN,0.011,71395.892,20.579,0.006,0.799,0.726,0.344,0.336,0.12,NaN,NaN,NaN,NaN,NaN,NaN,NaN,NaN,0,34.4,9.294,90,0,2.351,14.999,1013.234,340.388,0.01,0.005
0.2,0.167,3.663,53.752,3.663,53.752,0,0,0,0,0,0,28.61,-80.6,9.792,33.033,0,0,0,348.566,25.529,0.001,0,NaN,148.08,NaN,0.013,79759.616,22.158,0.009,0.791,0.811,0.334,0.338,0.12,NaN,NaN,NaN,NaN,NaN,NaN,NaN,NaN,0,34.4,9.294,90,0,2.382,14.999,1013.23,340.388,0.01,0.005
0.21,0.207,4.246,58.3,4.246,58.3,0,0,0,0,0,0,28.61,-80.6,9.792,29.06,0,0,0,348.426,25.39,0.001,0,NaN,148.04,NaN,0.014,88668.846,23.737,0.012,0.784,0.887,0.324,0.339,0.12,NaN,NaN,NaN,NaN,NaN,NaN,NaN,NaN,0.001,34.4,9.294,90,0,2.36,14.999,1013.226,340.388,0.01,0.005
0.22,0.252,4.855,60.85,4.855,60.85,0,0,0,0,0,0,28.61,-80.6,9.792,25.707,0,0,0,348.269,25.233,0.001,0,NaN,147.994,NaN,0.016,98344.569,24.618,0.015,0.777,0.937,0.316,0.341,0.12,NaN,NaN,NaN,NaN,NaN,NaN,NaN,NaN,0.001,34.4,9.294,90,0,2.337,14.998,1013.22,340.388,0.01,0.006
0.23,0.304,5.431,57.596,5.431,57.596,0,0,0,0,0,0,28.61,-80.6,9.792,23.085,0,0,0,348.105,25.068,0.001,0,NaN,147.945,NaN,0.017,107749.791,23.477,0.019,0.772,0.966,0.309,0.343,0.12,NaN,NaN,NaN,NaN,NaN,NaN,NaN,NaN,0.001,34.4,9.294,90,0,2.315,14.998,1013.214,340.388,0.01,0.006
0.24,0.361,5.97,53.971,5.97,53.971,0,0,0,0,0,0,28.61,-80.6,9.792,21.004,0,0,0,347.941,24.904,0.001,0,NaN,147.897,NaN,0.019,116726.207,22.209,0.023,0.767,0.98,0.302,0.344,0.12,NaN,NaN,NaN,NaN,NaN,NaN,NaN,NaN,0.001,34.4,9.294,90,0,2.292,14.998,1013.208,340.387,0.01,0.006
0.25,0.423,6.474,50.343,6.474,50.343,0,0,0,0,0,0,28.61,-80.6,9.792,19.322,0,0,0,347.776,24.74,0.001,0,NaN,147.849,NaN,0.02,125209.383,20.94,0.026,0.763,0.986,0.297,0.346,0.12,NaN,NaN,NaN,NaN,NaN,NaN,NaN,NaN,0.001,34.4,9.294,90,0,2.27,14.997,1013.2,340.387,0.01,0.006
0.26,0.49,6.941,46.711,6.941,46.711,0,0,0,0,0,0,28.61,-80.6,9.792,18.267,0,0,0,347.612,24.576,0.001,0,NaN,147.801,NaN,0.021,133403.254,19.671,0.03,0.759,0.985,0.292,0.347,0.12,NaN,NaN,NaN,NaN,NaN,NaN,NaN,NaN,0.001,34.4,9.294,90,0,2.291,14.997,1013.193,340.387,0.01,0.007
0.27,0.561,7.371,43.076,7.371,43.076,0,0,0,0,0,0,28.61,-80.6,9.792,17.415,0,0,0,347.448,24.411,0.001,0,NaN,147.752,NaN,0.023,141003.934,18.402,0.033,0.756,0.983,0.288,0.348,0.12,NaN,NaN,NaN,NaN,NaN,NaN,NaN,NaN,0.001,34.4,9.294,90,0,2.312,14.996,1013.184,340.387,0.01,0.007
0.28,0.637,7.766,39.438,7.766,39.438,0,0,0,0,0,0,28.61,-80.6,9.792,16.724,0,0,0,347.283,24.247,0.001,0,NaN,147.704,NaN,0.024,147996.585,17.134,0.037,0.754,0.98,0.285,0.349,0.12,NaN,NaN,NaN,NaN,NaN,NaN,NaN,NaN,0.001,34.4,9.294,90,0,2.333,14.996,1013.175,340.386,0.01,0.007
0.29,0.717,8.125,35.912,8.125,35.912,0,0,0,0,0,0,28.61,-80.6,9.792,16.161,0,0,0,347.139,24.103,0.001,0,NaN,147.662,NaN,0.025,154391.043,15.906,0.04,0.752,0.976,0.282,0.349,0.12,NaN,NaN,NaN,NaN,NaN,NaN,NaN,NaN,0.001,34.4,9.294,90,0,2.354,14.995,1013.166,340.386,0.01,0.007
0.3,0.8,8.459,33.466,8.459,33.466,0,0,0,0,0,0,28.61,-80.6,9.792,15.686,0,0,0,347.026,23.989,0.001,0,NaN,147.628,NaN,0.026,160369.255,15.054,0.043,0.75,0.971,0.28,0.35,0.12,NaN,NaN,NaN,NaN,NaN,NaN,NaN,NaN,0.001,34.4,9.294,90,0,2.376,14.995,1013.156,340.386,0.01,0.008
0.31,0.886,8.772,31.283,8.772,31.283,0,0,0,0,0,0,28.61,-80.6,9.792,15.197,0,0,0,346.912,23.875,0.001,0,NaN,147.594,NaN,0.027,165906.413,14.295,0.045,0.748,0.965,0.277,0.351,0.12,NaN,NaN,NaN,NaN,NaN,NaN,NaN,NaN,0.001,34.4,9.294,90,0,2.383,14.994,1013.146,340.385,0.01,0.008
0.32,0.975,9.063,29.099,9.063,29.099,0,0,0,0,0,0,28.61,-80.6,9.792,14.773,0,0,0,346.798,23.762,0.001,0,NaN,147.561,NaN,0.028,171069.309,13.535,0.048,0.747,0.96,0.275,0.351,0.12,NaN,NaN,NaN,NaN,NaN,NaN,NaN,NaN,0.001,34.4,9.294,90,0,2.39,14.994,1013.136,340.385,0.01,0.008
0.33,1.067,9.332,26.918,9.332,26.918,0,0,0,0,0,0,28.61,-80.6,9.792,14.406,0,0,0,346.686,23.65,0.001,0,NaN,147.528,NaN,0.028,175855.408,12.777,0.05,0.745,0.955,0.273,0.352,0.12,NaN,NaN,NaN,NaN,NaN,NaN,NaN,NaN,0.001,34.4,9.294,90,0,2.397,14.993,1013.125,340.385,0.01,0.008
0.34,1.16,9.581,25.271,9.581,25.276,-0,0,0,180,0.005,0.526,28.61,-80.6,9.792,14.038,0,4.051,-0,346.594,23.558,0.001,0,193.045,147.501,1.324,0.029,180263.971,12.205,0.053,0.744,0.949,0.272,0.352,0.12,3.35,4.435,0,0,0,0,0,0,0.001,34.4,9.294,89.98,0.003,2.404,14.992,1013.114,340.384,0.01,0.008
0.349,1.253,9.811,24.01,9.811,24.015,-0,0,0,180,0.01,0.5,28.61,-80.6,9.792,13.673,-0,8.091,-0.001,346.505,23.468,0.001,0,193.252,147.474,1.331,0.03,184354.956,11.767,0.055,0.743,0.944,0.27,0.353,0.12,3.249,4.322,-0,0,0,0,0,0.002,0.001,34.4,9.294,89.922,0.002,2.411,14.992,1013.103,340.384,0.01,0.009
0.359,1.346,10.026,22.777,10.026,22.782,-0,0,0,180,0.015,0.454,28.61,-80.6,9.792,13.342,0,12.127,0,346.417,23.381,0.001,0,193.443,147.448,1.337,0.03,188193.437,11.339,0.057,0.742,0.938,0.269,0.353,0.12,3.158,4.218,0,0,0,0,0,0.004,0.001,34.4,9.294,89.827,0.001,2.425,14.991,1013.092,340.384,0.009,0.009
0.368,1.44,10.225,21.567,10.225,21.571,-0,0,0,180,0.019,0.391,28.61,-80.6,9.792,13.008,0,16.155,0,346.331,23.294,0.001,0,193.637,147.423,1.343,0.031,191772.541,10.919,0.059,0.741,0.933,0.268,0.353,0.12,3.066,4.112,0,0,0,0,0,0.007,0.001,34.4,9.294,89.696,0.001,2.438,14.991,1013.081,340.383,0.009,0.009
0.377,1.534,10.414,20.657,10.414,20.659,-0.001,0,0.001,180,0.022,0.31,28.61,-80.6,9.792,12.662,0,20.173,-0,346.255,23.218,0.001,0,193.841,147.4,1.35,0.031,195162.546,10.602,0.06,0.74,0.927,0.267,0.354,0.12,2.972,4.002,0,0,0,0,0,0.01,0.001,34.4,9.294,89.53,0.001,2.451,14.99,1013.07,340.383,0.009,0.009
0.386,1.629,10.596,20.164,10.596,20.165,-0.001,0,0.001,180,0.024,0.209,28.61,-80.6,9.792,12.298,0,24.183,-0.001,346.18,23.144,0.001,0,194.059,147.378,1.357,0.032,198449.657,10.431,0.062,0.74,0.92,0.266,0.354,0.12,2.873,3.886,-0,0,0,0,0,0.014,0.001,34.4,9.294,89.33,0.001,2.464,14.989,1013.059,340.382,0.009,0.009
0.395,1.726,10.774,19.677,10.774,19.677,-0.001,0,0.001,180,0.026,0.091,28.61,-80.6,9.792,11.915,-0,28.186,-0.001,346.106,23.07,0.001,0,194.291,147.356,1.364,0.032,201649.762,10.261,0.063,0.739,0.913,0.265,0.354,0.12,2.77,3.762,0,0,0,0,0,0.018,0.001,34.4,9.294,89.094,0.001,2.478,14.989,1013.048,340.382,0.009,0.01
0.404,1.823,10.946,19.191,10.946,19.191,-0.001,0,0.001,180,0.026,0.048,28.61,-80.6,9.792,11.436,-0,32.179,-0.001,346.032,22.996,0.001,0,194.586,147.334,1.374,0.033,204715.871,10.092,0.065,0.738,0.904,0.264,0.354,0.12,2.643,3.608,-0,0,0,0,0,0.023,0.001,34.4,9.294,88.822,0.001,2.476,14.988,1013.036,340.382,0.009,0.01
0.413,1.924,11.117,18.702,11.117,18.703,-0.001,0,0.001,180,0.025,0.209,28.61,-80.6,9.792,10.851,0,36.128,-0.001,345.957,22.921,0.001,0,194.953,147.312,1.385,0.033,207678.814,9.922,0.066,0.738,0.893,0.263,0.355,0.12,2.489,3.419,-0,0,0,0,0,0.028,0.001,34.4,9.294,88.511,0.001,2.457,14.987,1013.024,340.381,0.009,0.01
0.423,2.028,11.287,18.217,11.287,18.221,-0.002,0,0.002,180,0.022,0.39,28.61,-80.6,9.792,10.236,0,40.07,-0.001,345.882,22.846,0.001,0,195.348,147.29,1.397,0.034,210644.097,9.754,0.067,0.737,0.881,0.262,0.355,0.12,2.329,3.221,0,0,0,0,0,0.033,0.001,34.4,9.294,88.155,0.001,2.438,14.987,1013.012,340.381,0.009,0.015
0.432,2.138,11.459,17.942,11.459,17.952,-0.002,0,0.002,179.999,0.017,0.6,28.61,-80.6,9.792,9.582,-0,43.996,-0.001,345.809,22.773,0.001,0,195.777,147.268,1.41,0.034,213667.065,9.659,0.068,0.736,0.868,0.261,0.355,0.12,2.162,3.009,0,0,0,0,0,0.039,0.001,34.4,9.294,87.751,0.001,2.418,14.986,1012.999,340.38,0.01,0.015
0.442,2.253,11.636,17.737,11.637,17.756,-0.002,0,0.002,179.999,0.01,0.839,28.61,-80.6,9.792,8.883,-0,47.903,-0.001,345.733,22.696,0.001,0,196.248,147.245,1.424,0.035,216784.682,9.589,0.069,0.736,0.854,0.26,0.355,0.12,1.986,2.784,0,0,0,0,0,0.045,0.001,34.4,9.294,87.291,0.001,2.397,14.985,1012.986,340.38,0.01,0.015
0.453,2.376,11.82,17.519,11.82,17.554,-0.002,0,0.002,179.999,0,1.107,28.61,-80.6,9.792,8.162,0,51.788,-0.001,345.653,22.616,0.001,0,196.746,147.222,1.44,0.035,220053.701,9.516,0.069,0.735,0.839,0.259,0.356,0.12,1.807,2.55,0,0,0,0,0,0.051,0.002,34.4,9.294,86.768,0.001,2.382,14.985,1012.971,340.38,0.01,0.016
0.464,2.509,12.013,17.285,12.013,17.342,-0.002,0,0.002,179.998,0.014,1.405,28.61,-80.6,9.792,7.464,0,55.676,-0.001,345.568,22.532,0.001,0,197.241,147.196,1.455,0.036,223549.027,9.439,0.07,0.734,0.825,0.258,0.356,0.12,1.636,2.324,0,0,0,0,0,0.057,0.002,34.4,9.294,86.171,0.001,2.385,14.984,1012.956,340.379,0.011,0.016
0.476,2.652,12.214,17.032,12.214,17.121,-0.002,0,0.002,179.998,0.032,1.742,28.61,-80.6,9.792,6.7,0,59.526,-0.002,345.478,22.442,0.001,0,197.797,147.17,1.472,0.037,227222.956,9.357,0.071,0.734,0.809,0.257,0.356,0.12,1.453,2.076,0,0,0,0,0,0.063,0.002,34.4,9.294,85.491,0.001,2.388,14.983,1012.939,340.378,0.012,0.016
0.489,2.809,12.428,16.754,12.428,16.888,-0.001,0,0.001,179.995,0.057,2.125,28.61,-80.6,9.792,5.85,-0,63.327,-0.002,345.381,22.345,0.001,0,198.434,147.141,1.491,0.037,231154.535,9.27,0.072,0.733,0.793,0.256,0.357,0.12,1.254,1.8,0,0,0,0,0,0.069,0.002,34.4,9.294,84.705,0.001,2.391,14.982,1012.921,340.378,0.013,0.016
0.503,2.987,12.662,16.465,12.663,16.666,-0,0,0,179.931,0.09,2.579,28.61,-80.6,9.792,4.842,-0,67.05,-0.003,345.275,22.239,0.001,0,199.216,147.109,1.515,0.038,235447.416,9.183,0.073,0.732,0.776,0.255,0.357,0.12,1.023,1.474,-0,0,0,0,0,0.074,0.002,34.4,9.294,83.778,0.001,2.386,14.981,1012.9,340.377,0.014,0.017
0.519,3.201,12.935,16.263,12.936,16.568,0.002,0,0.002,0.007,0.138,3.164,28.61,-80.6,9.792,3.447,0,70.506,-0.003,345.153,22.117,0.001,0,200.344,147.073,1.549,0.039,240313.198,9.133,0.075,0.732,0.756,0.255,0.357,0.12,0.713,1.025,0,0,0,0,0,0.079,0.002,34.4,9.294,82.626,0.001,2.334,14.979,1012.875,340.376,0.017,0.017
0.543,3.504,13.305,15.991,13.307,16.485,0.006,0,0.006,0.003,0.22,4.003,28.61,-80.6,9.792,1.538,-0,73.379,-0.009,344.985,21.949,0.001,0,201.981,147.023,1.598,0.04,246985.035,9.078,0.077,0.733,0.738,0.255,0.358,0.12,0.309,0.413,-0,0,0,0,0,0.081,0.002,34.4,9.294,80.962,0.001,2.263,14.977,1012.839,340.375,0.023,0.017
0.577,3.974,13.847,15.53,13.852,16.396,0.016,0,0.016,0.002,0.38,5.257,28.61,-80.6,9.792,1.101,0,-73.238,-0.012,344.733,21.697,0.001,0,202.372,146.947,1.611,0.041,256948.875,8.999,0.083,0.733,0.736,0.255,0.358,0.12,0.22,0.429,0,0,0,0,0,-0.075,0.002,34.4,9.294,78.411,0.001,2.179,14.974,1012.784,340.373,0.035,0.017
0.618,4.554,14.466,14.928,14.48,16.336,0.036,0,0.036,0.002,0.624,6.635,28.61,-80.6,9.792,3.564,0,-65.943,-0.002,344.436,21.4,0.001,0,200.249,146.859,1.552,0.043,268781.326,8.909,0.094,0.734,0.759,0.255,0.359,0.12,0.739,1.202,-0,0,0,0,0,-0.055,0.002,34.4,9.294,75.536,0.001,2.154,14.97,1012.716,340.371,0.041,0.017
0.634,4.78,14.695,14.749,14.714,16.38,0.047,0,0.047,0.002,0.731,7.125,28.61,-80.6,9.792,4.262,0,-61.522,-0.003,344.325,21.289,0.001,0,199.68,146.825,1.536,0.044,273333.434,8.897,0.098,0.735,0.769,0.255,0.36,0.12,0.893,1.418,0,0,0,0,0,-0.047,0.002,34.4,9.294,74.548,0.002,2.176,14.969,1012.689,340.37,0.015,0.018
0.646,4.969,14.883,14.635,14.906,16.444,0.057,0,0.057,0.002,0.824,7.497,28.61,-80.6,9.792,4.745,0,-57.243,-0.001,344.233,21.197,0.001,0,199.294,146.798,1.526,0.045,277089.47,8.897,0.102,0.735,0.777,0.255,0.36,0.12,1.001,1.566,0,0,0,0,0,-0.039,0.002,34.4,9.294,73.789,0.002,2.195,14.968,1012.667,340.369,0.013,0.018
0.658,5.137,15.047,14.534,15.075,16.501,0.067,0,0.067,0.002,0.91,7.813,28.61,-80.6,9.792,5.267,0,-53.009,-0.001,344.153,21.116,0.001,0,198.885,146.773,1.515,0.045,280237.749,8.897,0.105,0.735,0.785,0.255,0.36,0.12,1.12,1.729,-0,0,0,0,0,-0.033,0.002,34.4,9.294,73.168,0.002,2.169,14.967,1012.648,340.369,0.011,0.018
0.668,5.288,15.191,14.445,15.224,16.55,0.076,0,0.076,0.002,0.989,8.077,28.61,-80.6,9.792,5.742,-0,-48.781,-0.001,344.081,21.045,0.001,0,198.52,146.752,1.505,0.046,282953.232,8.898,0.109,0.735,0.794,0.255,0.36,0.12,1.229,1.876,0,0,0,0,0,-0.027,0.002,34.4,9.294,72.661,0.002,2.128,14.966,1012.63,340.368,0.01,0.018
0.677,5.425,15.321,14.369,15.358,16.592,0.085,0,0.085,0.002,1.063,8.296,28.61,-80.6,9.792,6.125,0,-44.614,-0.001,344.016,20.98,0.001,0,198.23,146.733,1.497,0.046,285400.292,8.898,0.111,0.735,0.801,0.255,0.36,0.12,1.318,1.995,0,0,0,0,0,-0.022,0.002,34.4,9.294,72.241,0.002,2.091,14.965,1012.614,340.368,0.009,0.018
0.685,5.552,15.44,14.303,15.482,16.628,0.094,0,0.094,0.002,1.133,8.481,28.61,-80.6,9.792,6.438,-0,-40.481,-0.001,343.957,20.92,0.001,0,197.995,146.715,1.491,0.046,287656.745,8.898,0.114,0.735,0.806,0.255,0.36,0.12,1.391,2.092,-0,0,0,0,0,-0.018,0.002,34.4,9.294,71.888,0.002,2.058,14.964,1012.599,340.367,0.008,0.019
0.693,5.673,15.551,14.245,15.597,16.66,0.104,0,0.104,0.002,1.199,8.638,28.61,-80.6,9.792,6.696,0,-36.37,-0.001,343.901,20.864,0.001,0,197.804,146.698,1.486,0.047,289770.602,8.898,0.116,0.736,0.811,0.255,0.361,0.12,1.452,2.172,0,0,0,0,0,-0.014,0.002,34.4,9.294,71.588,0.002,2.026,14.963,1012.585,340.367,0.008,0.019
0.7,5.789,15.656,14.196,15.707,16.687,0.113,0,0.113,0.002,1.264,8.772,28.61,-80.6,9.792,6.906,0,-32.279,-0.002,343.848,20.811,0.001,0,197.65,146.682,1.482,0.047,291773.868,8.899,0.119,0.736,0.815,0.255,0.361,0.12,1.502,2.237,0,0,0,0,0,-0.011,0.002,34.4,9.294,71.335,0.002,1.996,14.962,1012.571,340.366,0.007,0.019
0.707,5.9,15.757,14.155,15.812,16.71,0.122,0,0.122,0.002,1.326,8.881,28.61,-80.6,9.792,7.017,0,-28.218,-0.002,343.797,20.76,0.001,0,197.569,146.667,1.48,0.047,293751.424,8.899,0.121,0.736,0.818,0.255,0.361,0.12,1.529,2.271,-0,0,0,0,0,-0.008,0.002,34.4,9.294,71.12,0.002,1.984,14.962,1012.558,340.366,0.007,0.019
0.714,6.008,15.854,14.12,15.915,16.729,0.131,0,0.131,0.002,1.387,8.971,28.61,-80.6,9.792,7.096,0,-24.17,-0.001,343.747,20.711,0.001,0,197.512,146.652,1.478,0.048,295670.735,8.899,0.122,0.736,0.819,0.255,0.361,0.12,1.548,2.295,-0,0,0,0,0,-0.006,0.002,34.4,9.294,70.94,0.002,1.972,14.961,1012.545,340.365,0.007,0.019
0.721,6.115,15.949,14.091,16.014,16.745,0.141,0,0.141,0.002,1.448,9.046,28.61,-80.6,9.792,7.145,0,-20.128,-0.001,343.699,20.663,0.001,0,197.476,146.637,1.478,0.048,297544.243,8.899,0.124,0.736,0.82,0.255,0.361,0.12,1.56,2.309,0,0,0,0,0,-0.004,0.002,34.4,9.294,70.792,0.002,1.961,14.96,1012.533,340.365,0.007,0.02
0.727,6.22,16.041,14.068,16.112,16.758,0.15,0,0.15,0.002,1.508,9.106,28.61,-80.6,9.792,7.166,-0,-16.096,0,343.652,20.615,0.001,0,197.461,146.623,1.478,0.048,299380.941,8.899,0.126,0.736,0.821,0.255,0.361,0.12,1.565,2.315,0,0,0,0,0,-0.003,0.002,34.4,9.294,70.672,0.002,1.949,14.96,1012.52,340.364,0.007,0.02
0.734,6.325,16.132,14.051,16.208,16.768,0.16,0,0.16,0.002,1.567,9.151,28.61,-80.6,9.792,7.16,0,-12.071,-0.001,343.605,20.569,0.001,0,197.465,146.609,1.478,0.049,301189.528,8.899,0.127,0.736,0.821,0.255,0.361,0.12,1.563,2.313,-0,0,0,0,0,-0.001,0.002,34.4,9.294,70.581,0.002,1.938,14.959,1012.508,340.364,0.006,0.02
0.74,6.428,16.222,14.038,16.304,16.775,0.171,0,0.171,0.002,1.626,9.183,28.61,-80.6,9.792,7.129,0,-8.054,-0.001,343.559,20.523,0.001,0,197.488,146.595,1.479,0.049,302977.761,8.9,0.129,0.736,0.82,0.255,0.361,0.12,1.556,2.302,0,0,0,0,0,-0.001,0.002,34.4,9.294,70.517,0.002,1.927,14.958,1012.496,340.364,0.006,0.02
0.747,6.532,16.312,14.031,16.398,16.779,0.181,0,0.181,0.002,1.684,9.201,28.61,-80.6,9.792,7.074,0,-4.044,0,343.513,20.477,0.001,0,197.528,146.581,1.481,0.049,304752.126,8.9,0.13,0.737,0.819,0.255,0.361,0.12,1.543,2.285,-0,0,0,0,0,-0,0.002,34.4,9.294,70.478,0.002,1.917,14.958,1012.484,340.363,0.006,0.021
0.753,6.635,16.4,14.03,16.493,16.78,0.192,0,0.192,0.002,1.742,9.205,28.61,-80.6,9.792,6.984,0,-0.042,-0.001,343.468,20.432,0.001,0,197.594,146.568,1.483,0.049,306530.507,8.9,0.131,0.737,0.818,0.255,0.362,0.12,1.521,2.256,0,0,0,0,0,-0,0.002,34.4,9.294,70.465,0.002,1.909,14.957,1012.472,340.363,0.006,0.021
0.759,6.739,16.489,14.034,16.587,16.778,0.203,0,0.203,0.002,1.801,9.194,28.61,-80.6,9.792,6.859,0,3.949,-0.001,343.422,20.386,0.001,0,197.686,146.554,1.486,0.05,308324.797,8.9,0.133,0.737,0.816,0.255,0.362,0.12,1.491,2.217,0,0,0,0,0,0,0.002,34.4,9.294,70.478,0.002,1.904,14.956,1012.46,340.362,0.006,0.021
0.766,6.845,16.579,14.044,16.683,16.773,0.215,0,0.215,0.002,1.859,9.171,28.61,-80.6,9.792,6.709,0,7.931,-0.001,343.377,20.34,0.001,0,197.796,146.54,1.49,0.05,310131.214,8.9,0.134,0.737,0.813,0.255,0.362,0.12,1.456,2.168,0,0,0,0,0,0.001,0.002,34.4,9.294,70.515,0.002,1.9,14.956,1012.447,340.362,0.006,0.021
0.772,6.952,16.669,14.059,16.779,16.765,0.227,0,0.227,0.002,1.918,9.133,28.61,-80.6,9.792,6.534,0,11.905,-0.001,343.33,20.294,0.001,0,197.925,146.526,1.494,0.05,311956.908,8.9,0.135,0.737,0.81,0.255,0.362,0.12,1.414,2.111,-0,0,0,0,0,0.001,0.002,34.4,9.294,70.579,0.002,1.896,14.955,1012.435,340.362,0.006,0.021
0.779,7.061,16.761,14.079,16.877,16.754,0.24,0,0.24,0.002,1.977,9.082,28.61,-80.6,9.792,6.333,0,15.867,-0,343.284,20.247,0.001,0,198.075,146.512,1.499,0.051,313810.271,8.901,0.136,0.737,0.806,0.255,0.362,0.12,1.367,2.046,-0,0,0,0,0,0.002,0.002,34.4,9.294,70.67,0.002,1.891,14.954,1012.422,340.361,0.007,0.022
0.785,7.173,16.855,14.105,16.977,16.74,0.253,0,0.253,0.002,2.038,9.016,28.61,-80.6,9.792,6.105,0,19.821,-0.001,343.236,20.199,0.001,0,198.246,146.498,1.504,0.051,315702.093,8.901,0.137,0.737,0.802,0.255,0.362,0.12,1.313,1.972,0,0,0,0,0,0.004,0.002,34.4,9.294,70.789,0.002,1.887,14.953,1012.409,340.361,0.007,0.022
0.792,7.288,16.951,14.137,17.08,16.723,0.267,0,0.267,0.002,2.099,8.933,28.61,-80.6,9.792,5.847,0,23.762,-0.001,343.187,20.15,0.001,0,198.442,146.483,1.51,0.051,317643.461,8.901,0.138,0.737,0.798,0.255,0.362,0.12,1.253,1.888,0,0,0,0,0,0.005,0.002,34.4,9.294,70.937,0.002,1.882,14.953,1012.395,340.36,0.007,0.022
0.799,7.407,17.05,14.175,17.187,16.702,0.282,0,0.282,0.002,2.161,8.833,28.61,-80.6,9.792,5.558,0,27.689,-0.001,343.136,20.1,0.001,0,198.664,146.468,1.517,0.051,319648.394,8.901,0.138,0.737,0.793,0.255,0.362,0.12,1.186,1.794,-0,0,0,0,0,0.007,0.002,34.4,9.294,71.118,0.002,1.877,14.952,1012.381,340.36,0.007,0.022
0.806,7.532,17.154,14.221,17.298,16.677,0.298,0,0.298,0.002,2.225,8.711,28.61,-80.6,9.792,5.202,0,31.589,0,343.084,20.047,0.001,0,198.938,146.452,1.526,0.052,321774.747,8.901,0.139,0.738,0.787,0.255,0.362,0.12,1.105,1.677,0,0,0,0,0,0.009,0.002,34.4,9.294,71.335,0.002,1.881,14.951,1012.367,340.359,0.007,0.022
0.814,7.665,17.264,14.275,17.415,16.648,0.315,0,0.315,0.002,2.292,8.566,28.61,-80.6,9.792,4.799,0,35.461,0,343.028,19.992,0.001,0,199.255,146.435,1.535,0.052,324027.919,8.902,0.14,0.738,0.781,0.255,0.362,0.12,1.013,1.545,-0,0,0,0,0,0.011,0.002,34.4,9.294,71.593,0.002,1.887,14.95,1012.351,340.359,0.008,0.023
0.822,7.807,17.382,14.337,17.541,16.613,0.335,0,0.335,0.002,2.362,8.393,28.61,-80.6,9.792,4.342,0,39.297,0.001,342.969,19.933,0.001,0,199.619,146.417,1.547,0.053,326443.835,8.902,0.141,0.738,0.774,0.255,0.363,0.12,0.911,1.395,0,0,0,0,0,0.013,0.002,34.4,9.294,71.901,0.002,1.894,14.949,1012.334,340.358,0.008,0.023
0.831,7.964,17.511,14.41,17.68,16.573,0.356,0,0.356,0.002,2.436,8.185,28.61,-80.6,9.792,3.818,0,43.085,0.001,342.905,19.868,0.001,0,200.044,146.398,1.559,0.053,329083.173,8.902,0.142,0.738,0.766,0.255,0.363,0.12,0.795,1.223,-0,0,0,0,0,0.016,0.002,34.4,9.294,72.272,0.002,1.901,14.948,1012.316,340.358,0.009,0.023
0.841,8.141,17.657,14.497,17.835,16.525,0.381,0,0.381,0.002,2.517,7.932,28.61,-80.6,9.792,3.203,-0,46.79,-0.001,342.832,19.796,0.001,0,200.553,146.376,1.575,0.053,332050.223,8.902,0.143,0.738,0.759,0.255,0.363,0.12,0.66,1.022,-0,0,0,0,0,0.018,0.002,34.4,9.294,72.725,0.001,1.909,14.947,1012.295,340.357,0.01,0.023
0.853,8.352,17.829,14.601,18.019,16.466,0.412,0,0.412,0.002,2.61,7.612,28.61,-80.6,9.792,2.482,0,50.35,0.002,342.747,19.711,0.001,0,201.164,146.35,1.593,0.054,335499.066,8.903,0.145,0.738,0.751,0.255,0.363,0.12,0.506,0.786,0,0,0,0,0,0.021,0.002,34.4,9.294,73.301,0.002,1.908,14.946,1012.271,340.356,0.012,0.023
0.868,8.622,18.05,14.731,18.254,16.39,0.452,0,0.452,0.002,2.721,7.187,28.61,-80.6,9.792,1.635,0,53.694,-0.001,342.639,19.602,0.001,0,201.902,146.317,1.616,0.055,339745.973,8.903,0.147,0.738,0.744,0.255,0.363,0.12,0.329,0.509,-0,0,0,0,0,0.023,0.002,34.4,9.294,74.087,0.001,1.873,14.944,1012.239,340.355,0.015,0.024
0.891,9.034,18.385,14.919,18.609,16.277,0.515,0,0.515,0.002,2.876,6.509,28.61,-80.6,9.792,0.342,0,56.057,-0.006,342.476,19.44,0.001,0,203.071,146.268,1.651,0.056,346124.602,8.903,0.151,0.739,0.739,0.255,0.364,0.12,0.067,0.087,0,0,0,0,0,0.024,0.002,34.4,9.294,75.335,0.001,1.821,14.941,1012.19,340.353,0.023,0.024
0.925,9.666,18.896,15.164,19.145,16.116,0.616,0,0.616,0.002,3.079,5.457,28.61,-80.6,9.792,1.67,-0,-53.034,0.001,342.232,19.196,0.001,0,201.872,146.194,1.619,0.057,355970.083,8.904,0.161,0.739,0.745,0.255,0.364,0.12,0.336,0.565,-0,0,0,0,0,-0.02,0.002,34.4,9.294,77.208,0.001,1.803,14.937,1012.116,340.351,0.034,0.024
0.943,10.014,19.174,15.272,19.435,16.039,0.673,0,0.673,0.002,3.173,4.901,28.61,-80.6,9.792,2.685,0,-47.754,-0,342.101,19.065,0.001,0,200.992,146.154,1.594,0.058,361316.825,8.905,0.168,0.74,0.754,0.255,0.364,0.12,0.55,0.892,-0,0,0,0,0,-0.016,0.002,34.4,9.294,78.131,0,1.806,14.935,1012.076,340.349,0.018,0.024
0.954,10.233,19.348,15.326,19.615,15.999,0.71,0,0.71,0.002,3.227,4.59,28.61,-80.6,9.792,3.222,-0,-43.295,0.001,342.02,18.983,0.001,0,200.54,146.13,1.582,0.059,364610.444,8.905,0.173,0.74,0.761,0.255,0.365,0.12,0.665,1.064,-0,0,0,0,0,-0.013,0.003,34.4,9.294,78.649,-0,1.803,14.933,1012.05,340.349,0.011,0.024
0.964,10.414,19.491,15.364,19.763,15.97,0.74,0,0.74,0.002,3.269,4.359,28.61,-80.6,9.792,3.597,-0,-39.033,0.002,341.952,18.916,0.001,0,200.229,146.109,1.573,0.059,367291.385,8.905,0.177,0.74,0.766,0.255,0.365,0.12,0.746,1.185,-0,0,0,0,0,-0.01,0.003,34.4,9.294,79.034,-0,1.795,14.932,1012.029,340.348,0.009,0.025
0.972,10.576,19.619,15.392,19.895,15.948,0.767,0,0.767,0.002,3.304,4.175,28.61,-80.6,9.792,3.888,0,-34.842,0.001,341.893,18.856,0.001,0,199.99,146.091,1.567,0.06,369660.907,8.906,0.18,0.74,0.77,0.255,0.365,0.12,0.81,1.277,0,0,0,0,0,-0.008,0.003,34.4,9.294,79.34,-0.001,1.787,14.931,1012.01,340.347,0.008,0.025
0.98,10.725,19.735,15.413,20.015,15.93,0.792,0,0.792,0.002,3.335,4.024,28.61,-80.6,9.792,4.12,0,-30.699,0.002,341.838,18.802,0.001,0,199.802,146.075,1.562,0.06,371825.093,8.906,0.183,0.74,0.773,0.255,0.365,0.12,0.861,1.351,0,0,0,0,0,-0.006,0.003,34.4,9.294,79.588,-0.001,1.78,14.93,1011.992,340.347,0.008,0.025
0.987,10.865,19.844,15.43,20.127,15.915,0.816,0,0.816,0.002,3.363,3.899,28.61,-80.6,9.792,4.304,-0,-26.583,0.002,341.788,18.751,0.001,0,199.654,146.059,1.558,0.06,373844.098,8.906,0.185,0.74,0.776,0.255,0.365,0.12,0.902,1.41,0,0,0,0,0,-0.005,0.003,34.4,9.294,79.791,-0.001,1.774,14.929,1011.976,340.346,0.007,0.025
0.993,10.998,19.948,15.443,20.233,15.903,0.839,0,0.839,0.002,3.389,3.797,28.61,-80.6,9.792,4.449,0,-22.493,0.003,341.739,18.703,0.001,0,199.537,146.045,1.555,0.061,375755.854,8.906,0.188,0.74,0.778,0.255,0.365,0.12,0.935,1.456,-0,0,0,0,0,-0.003,0.003,34.4,9.294,79.955,-0.001,1.768,14.929,1011.96,340.346,0.007,0.025
1,11.127,20.047,15.454,20.335,15.894,0.86,0,0.86,0.002,3.413,3.715,28.61,-80.6,9.792,4.561,0,-18.419,0.001,341.693,18.657,0.001,0,199.448,146.031,1.553,0.061,377585.587,8.906,0.19,0.74,0.78,0.255,0.365,0.12,0.96,1.492,0,0,0,0,0,-0.002,0.003,34.4,9.294,80.087,-0.002,1.762,14.928,1011.945,340.345,0.006,0.026
1.006,11.251,20.142,15.461,20.433,15.886,0.882,0,0.882,0.002,3.436,3.647,28.61,-80.6,9.792,4.66,0,-14.356,0.001,341.649,18.612,0.001,0,199.37,146.017,1.551,0.061,379382.098,8.907,0.192,0.74,0.781,0.255,0.365,0.12,0.982,1.524,-0,0,0,0,0,-0.001,0.003,34.4,9.294,80.188,-0.002,1.763,14.927,1011.93,340.345,0.006,0.026
1.012,11.373,20.235,15.467,20.529,15.879,0.902,0,0.902,0.002,3.458,3.596,28.61,-80.6,9.792,4.731,0,-10.304,0,341.606,18.569,0.001,0,199.314,146.004,1.55,0.061,381122.678,8.907,0.194,0.741,0.783,0.255,0.365,0.12,0.998,1.547,-0,0,0,0,0,-0.001,0.003,34.4,9.294,80.262,-0.002,1.764,14.926,1011.916,340.344,0.006,0.026
1.018,11.491,20.326,15.47,20.622,15.875,0.923,0,0.923,0.002,3.479,3.561,28.61,-80.6,9.792,4.775,0,-6.265,0.001,341.564,18.527,0.001,0,199.279,145.991,1.549,0.062,382820.863,8.907,0.196,0.741,0.783,0.255,0.365,0.12,1.008,1.562,0,0,0,0,0,-0,0.003,34.4,9.294,80.311,-0.002,1.765,14.925,1011.902,340.344,0.006,0.026
1.024,11.609,20.415,15.472,20.713,15.871,0.943,0,0.943,0.002,3.499,3.54,28.61,-80.6,9.792,4.796,0,-2.236,0,341.522,18.486,0.001,0,199.263,145.978,1.549,0.062,384486.881,8.907,0.198,0.741,0.784,0.255,0.365,0.12,1.013,1.568,-0,0,0,0,0,-0,0.003,34.4,9.294,80.335,-0.002,1.766,14.925,1011.889,340.343,0.006,0.026
1.029,11.725,20.503,15.471,20.803,15.869,0.963,0,0.963,0.002,3.519,3.533,28.61,-80.6,9.792,4.793,0,1.782,0.001,341.481,18.445,0.001,0,199.265,145.966,1.549,0.062,386130.789,8.907,0.2,0.741,0.784,0.255,0.366,0.121,1.012,1.568,-0,0,0,0,0,0,0.003,34.4,9.294,80.337,-0.002,1.767,14.924,1011.875,340.343,0.006,0.027
1.035,11.84,20.59,15.469,20.892,15.869,0.983,0,0.983,0.002,3.539,3.54,28.61,-80.6,9.792,4.767,0,5.793,-0,341.441,18.405,0.001,0,199.285,145.954,1.55,0.062,387760.245,8.907,0.201,0.741,0.784,0.255,0.366,0.121,1.006,1.559,-0,0,0,0,0,0,0.003,34.4,9.294,80.315,-0.002,1.768,14.923,1011.861,340.342,0.006,0.027
1.041,11.956,20.677,15.465,20.981,15.87,1.002,0,1.002,0.002,3.559,3.561,28.61,-80.6,9.792,4.72,0,9.791,0.001,341.401,18.364,0.001,0,199.323,145.941,1.552,0.063,389383.71,8.907,0.203,0.741,0.783,0.255,0.366,0.121,0.995,1.544,-0,0,0,0,0,0.001,0.003,34.4,9.294,80.272,-0.002,1.769,14.922,1011.848,340.342,0.006,0.027
1.046,12.073,20.764,15.459,21.07,15.872,1.023,0,1.023,0.002,3.579,3.595,28.61,-80.6,9.792,4.65,0,13.781,0,341.36,18.324,0.001,0,199.378,145.929,1.554,0.063,391009.217,8.908,0.204,0.741,0.782,0.255,0.366,0.121,0.98,1.521,0,0,0,0,0,0.001,0.003,34.4,9.294,80.205,-0.002,1.77,14.922,1011.834,340.341,0.006,0.027
1.052,12.19,20.851,15.451,21.159,15.875,1.043,0,1.043,0.002,3.599,3.644,28.61,-80.6,9.792,4.558,0,17.759,0.001,341.32,18.283,0.001,0,199.452,145.917,1.556,0.063,392645.56,8.908,0.206,0.741,0.781,0.255,0.366,0.121,0.959,1.491,-0,0,0,0,0,0.002,0.003,34.4,9.294,80.116,-0.002,1.771,14.921,1011.82,340.341,0.006,0.027
1.058,12.31,20.939,15.441,21.25,15.88,1.063,0,1.063,0.002,3.62,3.707,28.61,-80.6,9.792,4.443,0,21.725,0,341.279,18.242,0.001,0,199.544,145.904,1.559,0.064,394300.119,8.908,0.207,0.741,0.779,0.255,0.366,0.121,0.933,1.452,0,0,0,0,0,0.003,0.003,34.4,9.294,80.003,-0.002,1.771,14.92,1011.806,340.34,0.006,0.028
1.063,12.432,21.029,15.429,21.342,15.887,1.085,0,1.085,0.002,3.642,3.785,28.61,-80.6,9.792,4.304,0,25.679,0,341.237,18.2,0.001,0,199.655,145.891,1.563,0.064,395984.286,8.908,0.208,0.741,0.777,0.255,0.366,0.121,0.902,1.407,-0,0,0,0,0,0.004,0.003,34.4,9.294,79.866,-0.002,1.772,14.919,1011.792,340.34,0.006,0.028
1.069,12.557,21.121,15.414,21.436,15.895,1.106,0,1.106,0.002,3.665,3.88,28.61,-80.6,9.792,4.14,0,29.624,0.001,341.194,18.158,0.001,0,199.788,145.878,1.567,0.064,397709.582,8.908,0.209,0.741,0.775,0.255,0.366,0.121,0.866,1.352,0,0,0,0,0,0.005,0.003,34.4,9.294,79.701,-0.001,1.773,14.918,1011.777,340.339,0.006,0.028
1.075,12.687,21.215,15.396,21.534,15.906,1.129,0,1.129,0.002,3.689,3.993,28.61,-80.6,9.792,3.948,0,33.548,0.002,341.15,18.114,0.001,0,199.944,145.865,1.572,0.064,399488.526,8.908,0.211,0.741,0.772,0.255,0.366,0.121,0.823,1.288,0,0,0,0,0,0.006,0.003,34.4,9.294,79.507,-0.001,1.774,14.918,1011.762,340.339,0.006,0.028
1.082,12.823,21.313,15.375,21.635,15.919,1.152,0,1.152,0.002,3.715,4.125,28.61,-80.6,9.792,3.725,0,37.454,0.001,341.104,18.068,0.001,0,200.126,145.851,1.578,0.065,401340.834,8.909,0.212,0.742,0.769,0.255,0.366,0.121,0.774,1.214,0,0,0,0,0,0.008,0.003,34.4,9.294,79.28,-0.001,1.775,14.917,1011.746,340.338,0.006,0.028
1.089,12.966,21.416,15.349,21.741,15.934,1.177,0,1.177,0.002,3.743,4.28,28.61,-80.6,9.792,3.467,-0,41.334,0.001,341.056,18.019,0.001,0,200.339,145.836,1.584,0.065,403288.503,8.909,0.213,0.742,0.766,0.255,0.366,0.121,0.718,1.128,0,0,0,0,0,0.01,0.003,34.4,9.294,79.016,-0.001,1.776,14.916,1011.729,340.338,0.007,0.029
1.096,13.119,21.526,15.317,21.854,15.953,1.204,0,1.204,0.002,3.774,4.463,28.61,-80.6,9.792,3.169,0,45.181,0.003,341.005,17.968,0.001,0,200.588,145.82,1.592,0.065,405364.674,8.909,0.214,0.742,0.762,0.255,0.366,0.121,0.653,1.028,-0,0,0,0,0,0.011,0.003,34.4,9.294,78.707,-0.001,1.777,14.915,1011.711,340.337,0.007,0.029
1.103,13.286,21.644,15.278,21.977,15.977,1.234,0,1.234,0.002,3.81,4.674,28.61,-80.6,9.792,2.839,0,48.98,0.003,340.949,17.912,0.001,0,200.865,145.803,1.601,0.066,407656.551,8.909,0.216,0.742,0.758,0.255,0.367,0.121,0.582,0.919,-0,0,0,0,0,0.013,0.003,34.4,9.294,78.342,-0,1.787,14.914,1011.692,340.337,0.008,0.029
1.112,13.472,21.775,15.229,22.113,16.005,1.267,0,1.267,0.002,3.851,4.923,28.61,-80.6,9.792,2.476,0,52.747,0.001,340.887,17.851,0.001,0,201.175,145.785,1.61,0.066,410248.107,8.909,0.217,0.742,0.755,0.255,0.367,0.121,0.505,0.798,-0,0,0,0,0,0.015,0.003,34.4,9.294,77.906,-0,1.809,14.912,1011.67,340.336,0.009,0.029
1.122,13.685,21.923,15.166,22.267,16.042,1.304,0,1.304,0.002,3.9,5.226,28.61,-80.6,9.792,2.033,0,56.405,0.004,340.817,17.781,0.001,0,201.559,145.763,1.622,0.067,413194.186,8.91,0.219,0.742,0.751,0.255,0.367,0.121,0.412,0.651,0,0,0,0,0,0.017,0.003,34.4,9.294,77.374,0,1.834,14.911,1011.645,340.335,0.01,0.03
1.133,13.944,22.101,15.079,22.453,16.092,1.35,0,1.35,0.002,3.964,5.618,28.61,-80.6,9.792,1.464,0,59.859,0.004,340.733,17.696,0.001,0,202.059,145.737,1.637,0.067,416756.887,8.91,0.222,0.742,0.747,0.255,0.367,0.121,0.294,0.463,0,0,0,0,0,0.019,0.003,34.4,9.294,76.69,0.001,1.865,14.909,1011.615,340.334,0.012,0.03
1.15,14.305,22.345,14.94,22.711,16.171,1.416,0,1.416,0.002,4.06,6.187,28.61,-80.6,9.792,0.643,-0,62.719,0.007,340.616,17.58,0.001,0,202.801,145.702,1.66,0.068,421693.191,8.91,0.226,0.742,0.743,0.255,0.367,0.121,0.128,0.191,-0,0,0,0,0,0.02,0.003,34.4,9.294,75.69,0.001,1.907,14.907,1011.572,340.333,0.016,0.03
1.174,14.855,22.706,14.691,23.096,16.307,1.517,0,1.517,0.002,4.222,7.078,28.61,-80.6,9.792,0.717,-0,-62.213,0.014,340.441,17.404,0.001,0,202.734,145.648,1.659,0.069,428831.714,8.911,0.234,0.743,0.744,0.255,0.367,0.121,0.142,0.256,-0,0,0,0,0,-0.019,0.003,34.4,9.294,74.154,0.001,1.912,14.903,1011.508,340.33,0.024,0.03
1.201,15.479,23.103,14.385,23.523,16.468,1.635,0,1.635,0.002,4.428,8.016,28.61,-80.6,9.792,2.09,-0,-54.548,0.008,340.245,17.208,0.001,0,201.511,145.588,1.626,0.07,436773.757,8.911,0.245,0.743,0.752,0.255,0.368,0.121,0.424,0.703,0,0,0,0,0,-0.014,0.003,34.4,9.294,72.546,0.002,1.912,14.899,1011.435,340.328,0.027,0.03
1.211,15.702,23.24,14.271,23.673,16.528,1.677,0,1.677,0.002,4.507,8.337,28.61,-80.6,9.792,2.599,0,-49.995,0,340.176,17.139,0.001,0,201.073,145.567,1.614,0.071,439387.612,8.912,0.25,0.743,0.757,0.255,0.368,0.121,0.531,0.869,-0,0,0,0,0,-0.012,0.003,34.4,9.294,72.044,0.002,1.876,14.898,1011.408,340.327,0.01,0.031
1.219,15.882,23.35,14.186,23.794,16.572,1.713,0,1.713,0.002,4.572,8.566,28.61,-80.6,9.792,2.956,0,-45.698,0.002,340.12,17.084,0.001,0,200.77,145.55,1.605,0.071,441491.06,8.912,0.254,0.743,0.761,0.255,0.368,0.121,0.608,0.985,0,0,0,0,0,-0.01,0.003,34.4,9.294,71.673,0.002,1.846,14.897,1011.387,340.326,0.008,0.031
1.225,16.04,23.446,14.116,23.899,16.607,1.744,0,1.744,0.002,4.631,8.749,28.61,-80.6,9.792,3.236,0,-41.491,0.001,340.072,17.035,0.001,0,200.535,145.535,1.599,0.071,443325.644,8.912,0.257,0.743,0.765,0.255,0.368,0.121,0.668,1.076,-0,0,0,0,0,-0.008,0.003,34.4,9.294,71.379,0.002,1.821,14.896,1011.369,340.326,0.007,0.031
1.232,16.184,23.532,14.057,23.994,16.637,1.772,0,1.772,0.002,4.685,8.899,28.61,-80.6,9.792,3.461,-0,-37.337,0.004,340.028,16.991,0.001,0,200.348,145.521,1.594,0.072,444988.711,8.912,0.26,0.743,0.767,0.255,0.368,0.121,0.717,1.148,-0,0,0,0,0,-0.006,0.003,34.4,9.294,71.137,0.002,1.798,14.895,1011.352,340.325,0.006,0.031
1.237,16.318,23.612,14.006,24.082,16.662,1.799,0,1.799,0.002,4.736,9.025,28.61,-80.6,9.792,3.645,-0,-33.216,0.003,339.987,16.95,0.001,0,200.196,145.509,1.59,0.072,446532.226,8.913,0.263,0.744,0.77,0.255,0.368,0.121,0.757,1.209,-0,0,0,0,0,-0.005,0.003,34.4,9.294,70.936,0.002,1.776,14.894,1011.336,340.325,0.006,0.031
1.243,16.445,23.687,13.964,24.166,16.683,1.825,0,1.825,0.002,4.785,9.129,28.61,-80.6,9.792,3.795,0,-29.117,0.001,339.948,16.912,0.001,0,200.073,145.497,1.587,0.072,447987.558,8.913,0.265,0.744,0.772,0.255,0.368,0.121,0.79,1.257,-0,0,0,0,0,-0.004,0.003,34.4,9.294,70.768,0.002,1.756,14.893,1011.321,340.324,0.005,0.032
1.248,16.567,23.759,13.927,24.245,16.7,1.849,0,1.849,0.002,4.832,9.216,28.61,-80.6,9.792,3.917,-0,-25.04,0.003,339.911,16.875,0.001,0,199.974,145.485,1.584,0.072,449376.058,8.913,0.267,0.744,0.774,0.255,0.368,0.121,0.816,1.296,0,0,0,0,0,-0.003,0.003,34.4,9.294,70.629,0.003,1.737,14.892,1011.307,340.324,0.005,0.032
1.253,16.685,23.828,13.899,24.322,16.713,1.873,0,1.873,0.002,4.877,9.281,28.61,-80.6,9.792,3.985,0,-20.979,0.001,339.876,16.839,0.001,0,199.919,145.474,1.583,0.073,450771.981,8.913,0.269,0.744,0.775,0.255,0.368,0.121,0.832,1.318,-0,0,0,0,0,-0.002,0.003,34.4,9.294,70.516,0.003,1.73,14.892,1011.293,340.323,0.005,0.032
1.258,16.8,23.895,13.878,24.397,16.723,1.897,0,1.897,0.002,4.922,9.329,28.61,-80.6,9.792,4.011,0,-16.954,0.001,339.841,16.804,0.001,0,199.898,145.464,1.582,0.073,452181.401,8.913,0.271,0.744,0.775,0.255,0.368,0.121,0.837,1.326,0,0,0,0,0,-0.001,0.003,34.4,9.294,70.424,0.003,1.734,14.891,1011.28,340.323,0.005,0.032
1.262,16.914,23.961,13.862,24.47,16.729,1.921,0,1.921,0.002,4.967,9.364,28.61,-80.6,9.792,4.018,0,-12.936,0.001,339.807,16.77,0.001,0,199.893,145.453,1.583,0.073,453572.927,8.913,0.273,0.744,0.775,0.255,0.368,0.121,0.839,1.328,0,0,0,0,0,-0.001,0.003,34.4,9.294,70.353,0.003,1.737,14.89,1011.266,340.322,0.005,0.032
1.267,17.028,24.027,13.851,24.544,16.733,1.944,0,1.944,0.002,5.011,9.388,28.61,-80.6,9.792,4.005,-0,-8.929,0.002,339.773,16.736,0.001,0,199.903,145.443,1.583,0.073,454953.163,8.913,0.274,0.744,0.775,0.255,0.368,0.121,0.836,1.324,-0,0,0,0,0,-0,0.003,34.4,9.294,70.301,0.003,1.74,14.889,1011.253,340.322,0.005,0.033
1.272,17.141,24.092,13.845,24.617,16.734,1.968,0,1.968,0.002,5.056,9.399,28.61,-80.6,9.792,3.974,0,-4.932,0.001,339.739,16.702,0.001,0,199.929,145.432,1.584,0.074,456328.864,8.914,0.276,0.744,0.775,0.255,0.369,0.121,0.829,1.313,-0,0,0,0,0,-0,0.003,34.4,9.294,70.268,0.003,1.743,14.889,1011.24,340.321,0.005,0.033
1.277,17.255,24.157,13.844,24.69,16.732,1.992,0,1.992,0.002,5.1,9.398,28.61,-80.6,9.792,3.924,0,-0.941,0.001,339.705,16.668,0.001,0,199.969,145.422,1.586,0.074,457707.432,8.914,0.277,0.744,0.774,0.255,0.369,0.121,0.818,1.297,0,0,0,0,0,-0,0.003,34.4,9.294,70.254,0.003,1.746,14.888,1011.226,340.321,0.005,0.033
1.281,17.37,24.223,13.847,24.763,16.728,2.016,0,2.016,0.002,5.145,9.386,28.61,-80.6,9.792,3.855,0,3.04,0.001,339.671,16.634,0.001,0,200.025,145.411,1.588,0.074,459094.969,8.914,0.279,0.744,0.773,0.255,0.369,0.121,0.803,1.275,0,0,0,0,0,0,0.003,34.4,9.294,70.259,0.003,1.749,14.887,1011.213,340.32,0.005,0.033
1.286,17.487,24.29,13.855,24.838,16.721,2.041,0,2.041,0.002,5.19,9.361,28.61,-80.6,9.792,3.767,0,7.008,0.002,339.636,16.6,0.001,0,200.097,145.401,1.59,0.074,460498.688,8.914,0.28,0.744,0.772,0.255,0.369,0.121,0.784,1.246,0,0,0,0,0,0,0.003,34.4,9.294,70.283,0.003,1.752,14.886,1011.199,340.32,0.005,0.033
1.291,17.605,24.357,13.869,24.914,16.711,2.066,0,2.066,0.002,5.235,9.324,28.61,-80.6,9.792,3.66,0,10.965,0.002,339.601,16.565,0.001,0,200.186,145.39,1.593,0.074,461925.769,8.914,0.281,0.744,0.771,0.255,0.369,0.121,0.76,1.211,-0,0,0,0,0,0.001,0.003,34.4,9.294,70.327,0.003,1.755,14.886,1011.185,340.32,0.005,0.034
1.296,17.727,24.427,13.887,24.991,16.699,2.093,0,2.093,0.002,5.282,9.273,28.61,-80.6,9.792,3.53,0,14.909,0.001,339.565,16.529,0.001,0,200.293,145.379,1.596,0.075,463386.253,8.914,0.282,0.744,0.769,0.255,0.369,0.121,0.732,1.167,0,0,0,0,0,0.001,0.003,34.4,9.294,70.392,0.003,1.758,14.885,1011.171,340.319,0.005,0.034
1.301,17.853,24.498,13.912,25.071,16.683,2.12,0,2.12,0.002,5.329,9.207,28.61,-80.6,9.792,3.376,-0,18.835,-0,339.528,16.492,0.001,0,200.421,145.367,1.6,0.075,464895.667,8.914,0.284,0.744,0.767,0.255,0.369,0.121,0.698,1.116,-0,0,0,0,0,0.002,0.003,34.4,9.294,70.479,0.003,1.762,14.884,1011.156,340.319,0.005,0.034
1.306,17.984,24.573,13.942,25.154,16.663,2.149,0,2.149,0.002,5.378,9.125,28.61,-80.6,9.792,3.19,-0,22.74,-0,339.49,16.453,0.001,0,200.576,145.356,1.605,0.075,466480.774,8.914,0.285,0.744,0.765,0.255,0.369,0.121,0.658,1.054,-0,0,0,0,0,0.002,0.003,34.4,9.294,70.59,0.003,1.77,14.883,1011.141,340.318,0.005,0.034
1.312,18.123,24.651,13.98,25.242,16.639,2.179,0,2.179,0.002,5.429,9.024,28.61,-80.6,9.792,2.975,-0,26.619,0,339.449,16.413,0.001,0,200.757,145.343,1.611,0.075,468148.369,8.915,0.286,0.744,0.763,0.255,0.369,0.121,0.611,0.982,0,0,0,0,0,0.003,0.003,34.4,9.294,70.729,0.003,1.778,14.882,1011.125,340.318,0.006,0.034
1.318,18.27,24.735,14.025,25.335,16.611,2.212,0,2.212,0.002,5.483,8.901,28.61,-80.6,9.792,2.724,-0,30.464,0.001,339.406,16.37,0.001,0,200.97,145.33,1.617,0.076,469926.034,8.915,0.287,0.744,0.76,0.255,0.369,0.121,0.558,0.898,0,0,0,0,0,0.004,0.003,34.4,9.294,70.9,0.003,1.786,14.881,1011.107,340.317,0.006,0.035
1.325,18.431,24.826,14.078,25.437,16.577,2.247,0,2.247,0.002,5.54,8.753,28.61,-80.6,9.792,2.43,0,34.266,0.001,339.36,16.323,0.001,0,201.221,145.316,1.625,0.076,471855.877,8.915,0.288,0.745,0.757,0.255,0.369,0.121,0.495,0.801,0,0,0,0,0,0.005,0.003,34.4,9.294,71.11,0.003,1.795,14.88,1011.088,340.316,0.006,0.035
1.332,18.611,24.928,14.143,25.55,16.537,2.288,0,2.288,0.002,5.603,8.569,28.61,-80.6,9.792,2.079,0,37.992,-0,339.308,16.271,0.001,0,201.525,145.299,1.634,0.076,474006.885,8.915,0.29,0.745,0.754,0.255,0.369,0.121,0.422,0.684,-0,0,0,0,0,0.006,0.003,34.4,9.294,71.372,0.003,1.805,14.879,1011.067,340.316,0.007,0.035
1.34,18.82,25.047,14.223,25.681,16.486,2.335,0,2.335,0.002,5.674,8.337,28.61,-80.6,9.792,1.646,0,41.591,-0,339.248,16.211,0.001,0,201.904,145.281,1.646,0.077,476503.796,8.915,0.292,0.745,0.751,0.255,0.369,0.121,0.332,0.539,0,0,0,0,0,0.007,0.003,34.4,9.294,71.706,0.003,1.816,14.878,1011.043,340.315,0.008,0.035
1.351,19.084,25.197,14.328,25.847,16.42,2.395,0,2.395,0.002,5.76,8.021,28.61,-80.6,9.792,1.073,-0,44.91,-0,339.172,16.136,0.001,0,202.416,145.258,1.662,0.077,479644.914,8.915,0.294,0.745,0.747,0.255,0.369,0.121,0.214,0.348,-0,0,0,0,0,0.008,0.003,34.4,9.294,72.161,0.003,1.832,14.876,1011.012,340.314,0.011,0.035
1.366,19.483,25.424,14.485,26.096,16.315,2.487,0,2.487,0.002,5.882,7.508,28.61,-80.6,9.792,0.148,-0,47.104,0.002,339.059,16.022,0.001,0,203.264,145.223,1.687,0.078,484462.069,8.916,0.299,0.745,0.745,0.255,0.37,0.121,0.029,0.041,-0,0,0,0,0,0.009,0.003,34.4,9.294,72.891,0.002,1.874,14.873,1010.965,340.312,0.016,0.036
1.39,20.089,25.769,14.696,26.47,16.165,2.628,0,2.628,0.002,6.05,6.733,28.61,-80.6,9.792,1.186,-0,-43.791,0.008,338.889,15.852,0.001,0,202.316,145.17,1.661,0.079,491692.021,8.916,0.31,0.745,0.748,0.255,0.37,0.121,0.237,0.401,-0,0,0,0,0,-0.007,0.003,34.4,9.294,73.982,0.002,1.937,14.869,1010.894,340.31,0.024,0.036
1.403,20.425,25.961,14.795,26.676,16.091,2.707,0,2.707,0.002,6.135,6.326,28.61,-80.6,9.792,1.85,0,-38.694,0,338.795,15.759,0.001,0,201.727,145.141,1.645,0.08,495637.892,8.917,0.316,0.745,0.753,0.255,0.37,0.121,0.374,0.62,0,0,0,0,0,-0.006,0.003,34.4,9.294,74.521,0.002,1.967,14.867,1010.854,340.308,0.013,0.036
1.411,20.643,26.085,14.847,26.809,16.05,2.759,0,2.759,0.002,6.187,6.097,28.61,-80.6,9.792,2.205,0,-34.28,-0.001,338.735,15.699,0.001,0,201.418,145.122,1.636,0.08,498128.811,8.917,0.321,0.746,0.756,0.255,0.37,0.121,0.448,0.738,-0,0,0,0,0,-0.004,0.003,34.4,9.294,74.827,0.002,1.977,14.866,1010.829,340.308,0.008,0.036
1.418,20.826,26.189,14.883,26.92,16.02,2.802,0,2.802,0.002,6.229,5.927,28.61,-80.6,9.792,2.466,-0,-30.018,0.001,338.685,15.648,0.001,0,201.193,145.107,1.63,0.081,500202.261,8.917,0.325,0.746,0.758,0.255,0.37,0.121,0.503,0.823,-0,0,0,0,0,-0.003,0.003,34.4,9.294,75.052,0.001,1.985,14.865,1010.808,340.307,0.007,0.036
1.425,20.988,26.282,14.911,27.018,15.996,2.841,0,2.841,0.002,6.265,5.793,28.61,-80.6,9.792,2.669,-0,-25.833,0.002,338.64,15.604,0.001,0,201.02,145.093,1.626,0.081,502041.429,8.917,0.328,0.746,0.761,0.255,0.37,0.121,0.546,0.89,-0,0,0,0,0,-0.002,0.003,34.4,9.294,75.225,0.001,1.993,14.864,1010.788,340.306,0.006,0.037
1.43,21.138,26.366,14.931,27.108,15.977,2.877,0,2.877,0.002,6.298,5.686,28.61,-80.6,9.792,2.83,-0,-21.696,0.002,338.599,15.563,0.001,0,200.884,145.08,1.622,0.081,503728.269,8.918,0.331,0.746,0.762,0.255,0.37,0.121,0.58,0.943,-0,0,0,0,0,-0.002,0.003,34.4,9.294,75.361,0.001,2,14.863,1010.771,340.306,0.006,0.037
1.436,21.279,26.446,14.947,27.193,15.962,2.91,0,2.91,0.003,6.328,5.601,28.61,-80.6,9.792,2.957,0,-17.588,0.002,338.561,15.525,0.001,0,200.776,145.069,1.619,0.081,505307.314,8.918,0.334,0.746,0.764,0.255,0.37,0.121,0.608,0.985,-0,0,0,0,0,-0.001,0.004,34.4,9.294,75.465,0.001,2.006,14.862,1010.754,340.305,0.005,0.037
1.441,21.413,26.522,14.959,27.273,15.95,2.942,0,2.942,0.003,6.356,5.534,28.61,-80.6,9.792,3.056,0,-13.505,0.001,338.525,15.488,0.001,0,200.693,145.057,1.617,0.082,506808.462,8.918,0.336,0.746,0.765,0.255,0.37,0.121,0.629,1.018,0,0,0,0,0,-0.001,0.004,34.4,9.294,75.544,0.001,2.012,14.861,1010.739,340.305,0.005,0.037
1.446,21.543,26.595,14.967,27.35,15.94,2.974,0,2.974,0.003,6.383,5.484,28.61,-80.6,9.792,3.131,0,-9.44,0.001,338.49,15.453,0.001,0,200.63,145.046,1.616,0.082,508251.275,8.918,0.338,0.746,0.766,0.255,0.37,0.121,0.645,1.043,0,0,0,0,0,-0,0.004,34.4,9.294,75.6,0.001,2.018,14.86,1010.723,340.304,0.005,0.037
1.45,21.669,26.666,14.972,27.425,15.932,3.004,0,3.004,0.003,6.409,5.449,28.61,-80.6,9.792,3.183,-0,-5.393,0.001,338.456,15.419,0.001,0,200.587,145.036,1.615,0.082,509645.52,8.918,0.341,0.746,0.767,0.255,0.37,0.121,0.656,1.06,0,0,0,0,0,-0,0.004,34.4,9.294,75.635,0.001,2.023,14.859,1010.709,340.304,0.005,0.038
1.455,21.792,26.735,14.973,27.498,15.928,3.034,0,3.034,0.003,6.434,5.434,28.61,-80.6,9.792,3.194,0,-1.372,0.001,338.422,15.386,0.001,0,200.578,145.026,1.615,0.082,510953.766,8.918,0.342,0.746,0.767,0.255,0.371,0.121,0.659,1.064,0,0,0,0,0,-0,0.004,34.4,9.294,75.651,0.001,2.017,14.858,1010.694,340.303,0.005,0.038
1.46,21.915,26.804,14.971,27.571,15.926,3.063,0,3.063,0.003,6.459,5.432,28.61,-80.6,9.792,3.187,0,2.638,0,338.389,15.353,0.001,0,200.584,145.015,1.615,0.083,512249.636,8.918,0.344,0.746,0.767,0.255,0.371,0.121,0.657,1.062,-0,0,0,0,0,0,0.004,34.4,9.294,75.648,0.001,2.012,14.858,1010.68,340.303,0.005,0.038
1.464,22.038,26.872,14.966,27.643,15.925,3.093,0,3.093,0.003,6.484,5.444,28.61,-80.6,9.792,3.162,0,6.637,0.003,338.356,15.32,0.001,0,200.605,145.005,1.616,0.083,513541.033,8.919,0.346,0.746,0.767,0.255,0.371,0.121,0.652,1.053,-0,0,0,0,0,0,0.004,34.4,9.294,75.627,0.001,2.007,14.857,1010.665,340.302,0.005,0.038
1.469,22.161,26.941,14.959,27.716,15.927,3.122,0,3.122,0.003,6.509,5.468,28.61,-80.6,9.792,3.118,-0,10.622,0,338.324,15.287,0.001,0,200.642,144.995,1.618,0.083,514835.412,8.919,0.347,0.746,0.766,0.255,0.371,0.121,0.643,1.039,-0,0,0,0,0,0,0.004,34.4,9.294,75.587,0.001,2.001,14.856,1010.651,340.302,0.005,0.039
1.473,22.286,27.01,14.948,27.789,15.93,3.153,0,3.153,0.003,6.534,5.506,28.61,-80.6,9.792,3.057,-0,14.592,0,338.29,15.254,0.001,0,200.694,144.985,1.619,0.083,516140.052,8.919,0.349,0.746,0.765,0.255,0.371,0.121,0.629,1.018,-0,0,0,0,0,0.001,0.004,34.4,9.294,75.529,0.001,1.996,14.855,1010.636,340.301,0.005,0.039
1.478,22.413,27.08,14.935,27.863,15.935,3.183,0,3.183,0.003,6.56,5.558,28.61,-80.6,9.792,2.976,0,18.553,0.001,338.257,15.22,0.001,0,200.762,144.974,1.622,0.083,517464.399,8.919,0.35,0.746,0.765,0.255,0.371,0.121,0.612,0.991,0,0,0,0,0,0.001,0.004,34.4,9.294,75.451,0.001,1.991,14.854,1010.621,340.301,0.005,0.039
1.483,22.542,27.151,14.918,27.939,15.943,3.215,0,3.215,0.003,6.587,5.624,28.61,-80.6,9.792,2.875,0,22.496,-0.001,338.222,15.186,0.001,0,200.847,144.963,1.625,0.084,518817.806,8.919,0.352,0.746,0.763,0.255,0.371,0.121,0.59,0.957,-0,0,0,0,0,0.002,0.004,34.4,9.294,75.353,0.001,1.985,14.853,1010.606,340.3,0.005,0.039
1.488,22.677,27.225,14.897,28.017,15.953,3.247,0,3.247,0.003,6.615,5.707,28.61,-80.6,9.792,2.752,-0,26.419,-0.002,338.187,15.15,0.001,0,200.951,144.952,1.628,0.084,520212.432,8.919,0.353,0.746,0.762,0.255,0.371,0.121,0.564,0.916,-0,0,0,0,0,0.002,0.004,34.4,9.294,75.232,0.001,1.979,14.853,1010.59,340.3,0.005,0.039
1.493,22.816,27.301,14.872,28.098,15.965,3.281,0,3.281,0.003,6.645,5.806,28.61,-80.6,9.792,2.605,-0,30.323,0,338.15,15.114,0.001,0,201.076,144.941,1.632,0.084,521661.702,8.919,0.354,0.746,0.761,0.255,0.371,0.121,0.533,0.866,0,0,0,0,0,0.003,0.004,34.4,9.294,75.087,0.001,1.973,14.852,1010.574,340.299,0.005,0.039
1.498,22.964,27.381,14.842,28.183,15.981,3.317,0,3.317,0.003,6.676,5.926,28.61,-80.6,9.792,2.431,-0,34.205,0.001,338.111,15.075,0.001,0,201.226,144.929,1.637,0.084,523185.936,8.919,0.355,0.747,0.759,0.255,0.371,0.121,0.496,0.808,0,0,0,0,0,0.004,0.004,34.4,9.294,74.913,0.001,1.967,14.851,1010.557,340.298,0.005,0.04
1.504,23.121,27.466,14.806,28.274,15.999,3.356,0,3.356,0.003,6.711,6.064,28.61,-80.6,9.792,2.244,0,38.059,0.001,338.07,15.033,0.001,0,201.387,144.916,1.642,0.085,524865.548,8.92,0.357,0.747,0.757,0.255,0.371,0.121,0.456,0.744,-0,0,0,0,0,0.005,0.004,34.4,9.294,74.705,0.001,1.97,14.85,1010.538,340.298,0.006,0.04
1.51,23.292,27.558,14.762,28.372,16.022,3.397,0,3.397,0.003,6.749,6.227,28.61,-80.6,9.792,2.028,-0,41.886,0.001,338.025,14.989,0.001,0,201.575,144.902,1.647,0.085,526702.004,8.92,0.359,0.747,0.755,0.255,0.371,0.121,0.411,0.671,-0,0,0,0,0,0.006,0.004,34.4,9.294,74.457,0.002,1.978,14.849,1010.518,340.297,0.006,0.04
1.517,23.48,27.658,14.709,28.48,16.05,3.443,0,3.443,0.003,6.792,6.424,28.61,-80.6,9.792,1.768,-0,45.642,-0,337.976,14.94,0.001,0,201.803,144.887,1.655,0.085,528723.292,8.92,0.36,0.747,0.754,0.255,0.371,0.121,0.357,0.583,0,0,0,0,0,0.007,0.004,34.4,9.294,74.159,0.002,1.987,14.847,1010.496,340.296,0.007,0.04
1.525,23.695,27.772,14.64,28.603,16.087,3.496,0,3.496,0.003,6.843,6.668,28.61,-80.6,9.792,1.444,0,49.286,0.003,337.921,14.884,0.001,0,202.089,144.87,1.663,0.086,531031.057,8.92,0.363,0.747,0.751,0.255,0.371,0.121,0.29,0.475,0,0,0,0,0,0.008,0.004,34.4,9.294,73.789,0.002,1.996,14.846,1010.471,340.296,0.008,0.041
1.534,23.959,27.911,14.546,28.753,16.137,3.561,0,3.561,0.003,6.907,6.988,28.61,-80.6,9.792,1.022,0,52.707,0.005,337.853,14.816,0.001,0,202.468,144.849,1.675,0.086,533842.467,8.92,0.365,0.747,0.749,0.255,0.371,0.121,0.204,0.333,-0,0,0,0,0,0.009,0.004,34.4,9.294,73.306,0.002,2.009,14.844,1010.44,340.295,0.009,0.041
1.548,24.333,28.104,14.396,28.964,16.217,3.654,0,3.654,0.003,7.004,7.465,28.61,-80.6,9.792,0.394,0,55.454,0.019,337.756,14.72,0.001,0,203.042,144.819,1.693,0.087,537815.446,8.921,0.37,0.747,0.747,0.255,0.371,0.121,0.078,0.122,0,0,0,0,0,0.01,0.004,34.4,9.294,72.58,0.002,2.026,14.842,1010.396,340.293,0.013,0.041
1.568,24.899,28.39,14.133,29.279,16.358,3.796,0,3.796,0.003,7.161,8.238,28.61,-80.6,9.792,0.724,-0,-54.233,0.011,337.612,14.576,0.001,0,202.74,144.774,1.685,0.088,543218.438,8.921,0.378,0.747,0.748,0.255,0.372,0.121,0.144,0.251,0,0,0,0,0,-0.009,0.004,34.4,9.294,71.469,0.002,1.951,14.838,1010.33,340.291,0.02,0.041
1.584,25.377,28.625,13.9,29.542,16.48,3.918,0,3.918,0.003,7.305,8.853,28.61,-80.6,9.792,1.6,0,-47.87,0.001,337.492,14.456,0.001,0,201.954,144.736,1.663,0.088,547664.029,8.921,0.386,0.747,0.753,0.255,0.372,0.121,0.322,0.543,-0,0,0,0,0,-0.007,0.004,34.4,9.294,70.607,0.002,1.878,14.835,1010.274,340.289,0.017,0.041
1.592,25.598,28.732,13.797,29.663,16.533,3.974,0,3.974,0.003,7.374,9.108,28.61,-80.6,9.792,1.956,0,-43.399,0.004,337.437,14.4,0.001,0,201.641,144.719,1.655,0.089,549703.633,8.922,0.391,0.748,0.756,0.255,0.372,0.121,0.396,0.661,0,0,0,0,0,-0.006,0.004,34.4,9.294,70.255,0.002,1.845,14.834,1010.248,340.288,0.008,0.042
1.598,25.78,28.818,13.72,29.761,16.572,4.021,0,4.021,0.003,7.432,9.295,28.61,-80.6,9.792,2.212,0,-39.118,0.001,337.391,14.355,0.001,0,201.418,144.705,1.649,0.089,551372.258,8.922,0.394,0.748,0.758,0.255,0.372,0.121,0.45,0.746,-0,0,0,0,0,-0.005,0.004,34.4,9.294,69.994,0.002,1.817,14.832,1010.226,340.287,0.006,0.042
1.604,25.94,28.895,13.662,29.848,16.6,4.062,0,4.062,0.003,7.484,9.43,28.61,-80.6,9.792,2.37,0,-34.944,0.001,337.351,14.315,0.001,0,201.282,144.692,1.645,0.089,552969.763,8.922,0.397,0.748,0.76,0.255,0.372,0.121,0.483,0.798,0,0,0,0,0,-0.004,0.004,34.4,9.294,69.788,0.003,1.816,14.831,1010.208,340.287,0.006,0.042
1.609,26.089,28.965,13.615,29.928,16.622,4.101,0,4.101,0.003,7.533,9.535,28.61,-80.6,9.792,2.48,-0,-30.84,0.002,337.314,14.278,0.001,0,201.188,144.681,1.643,0.089,554498.96,8.922,0.4,0.748,0.761,0.255,0.372,0.121,0.506,0.834,-0,0,0,0,0,-0.003,0.004,34.4,9.294,69.618,0.003,1.823,14.83,1010.19,340.286,0.005,0.042
1.614,26.232,29.032,13.576,30.005,16.639,4.138,0,4.138,0.003,7.58,9.621,28.61,-80.6,9.792,2.563,0,-26.76,0.002,337.279,14.243,0.001,0,201.117,144.67,1.641,0.09,555952.113,8.922,0.403,0.748,0.762,0.255,0.372,0.121,0.524,0.862,-0,0,0,0,0,-0.002,0.004,34.4,9.294,69.477,0.003,1.83,14.829,1010.173,340.286,0.005,0.042
1.619,26.369,29.096,13.543,30.078,16.653,4.174,0,4.174,0.003,7.626,9.69,28.61,-80.6,9.792,2.624,0,-22.696,0,337.245,14.209,0.001,0,201.065,144.659,1.64,0.09,557351.335,8.923,0.405,0.748,0.762,0.255,0.372,0.121,0.537,0.882,-0,0,0,0,0,-0.002,0.004,34.4,9.294,69.36,0.003,1.837,14.829,1010.157,340.285,0.005,0.043
1.623,26.503,29.158,13.518,30.15,16.664,4.209,0,4.209,0.003,7.67,9.744,28.61,-80.6,9.792,2.664,-0,-18.659,0.004,337.212,14.176,0.001,0,201.031,144.649,1.639,0.09,558710.213,8.923,0.407,0.748,0.763,0.255,0.372,0.121,0.545,0.895,0,0,0,0,0,-0.001,0.004,34.4,9.294,69.265,0.003,1.844,14.828,1010.142,340.285,0.005,0.043
1.628,26.634,29.219,13.498,30.22,16.671,4.244,0,4.244,0.003,7.714,9.784,28.61,-80.6,9.792,2.684,-0,-14.63,0.002,337.18,14.143,0.001,0,201.014,144.639,1.639,0.09,560042.391,8.923,0.409,0.748,0.763,0.255,0.372,0.121,0.55,0.902,0,0,0,0,0,-0.001,0.004,34.4,9.294,69.19,0.003,1.85,14.827,1010.126,340.284,0.005,0.043
1.632,26.764,29.279,13.483,30.289,16.675,4.278,0,4.278,0.003,7.758,9.81,28.61,-80.6,9.792,2.687,0,-10.614,0,337.148,14.111,0.001,0,201.012,144.629,1.639,0.091,561358.779,8.923,0.411,0.748,0.763,0.255,0.372,0.121,0.55,0.902,0,0,0,0,0,-0,0.004,34.4,9.294,69.134,0.003,1.857,14.826,1010.111,340.283,0.004,0.043
1.637,26.894,29.338,13.474,30.358,16.675,4.313,0,4.313,0.003,7.801,9.824,28.61,-80.6,9.792,2.672,0,-6.611,-0.001,337.116,14.079,0.001,0,201.025,144.619,1.64,0.091,562667.139,8.923,0.413,0.748,0.763,0.255,0.372,0.121,0.547,0.897,-0,0,0,0,0,-0,0.004,34.4,9.294,69.096,0.003,1.863,14.825,1010.096,340.283,0.004,0.043
1.641,27.024,29.398,13.471,30.426,16.673,4.347,0,4.347,0.003,7.845,9.825,28.61,-80.6,9.792,2.639,0,-2.624,-0.001,337.084,14.048,0.001,0,201.053,144.609,1.641,0.091,563975.682,8.923,0.415,0.748,0.763,0.255,0.372,0.121,0.54,0.886,0,0,0,0,0,-0,0.004,34.4,9.294,69.076,0.003,1.869,14.824,1010.081,340.282,0.004,0.044
1.646,27.155,29.458,13.473,30.496,16.668,4.382,0,4.382,0.003,7.888,9.813,28.61,-80.6,9.792,2.589,0,1.35,-0.002,337.052,14.016,0.001,0,201.096,144.599,1.642,0.091,565293.77,8.923,0.417,0.748,0.762,0.255,0.372,0.121,0.529,0.87,0,0,0,0,0,0,0.004,34.4,9.294,69.073,0.003,1.876,14.823,1010.065,340.282,0.004,0.044
1.65,27.288,29.519,13.481,30.566,16.659,4.418,0,4.418,0.003,7.933,9.788,28.61,-80.6,9.792,2.521,0,5.31,-0.002,337.02,13.983,0.001,0,201.154,144.589,1.644,0.091,566631.11,8.923,0.418,0.748,0.761,0.255,0.372,0.121,0.515,0.846,0,0,0,0,0,0,0.004,34.4,9.294,69.088,0.003,1.882,14.823,1010.05,340.281,0.005,0.044
1.655,27.424,29.581,13.493,30.638,16.648,4.455,0,4.455,0.003,7.978,9.751,28.61,-80.6,9.792,2.441,0,9.259,-0.003,336.987,13.95,0.001,0,201.223,144.578,1.647,0.092,567971.828,8.923,0.42,0.748,0.761,0.255,0.372,0.121,0.498,0.82,-0,0,0,0,0,0,0.004,34.4,9.294,69.122,0.003,1.884,14.822,1010.034,340.281,0.005,0.044
1.66,27.565,29.645,13.512,30.712,16.633,4.493,0,4.493,0.003,8.024,9.7,28.61,-80.6,9.792,2.341,0,13.191,-0,336.952,13.916,0.001,0,201.309,144.568,1.649,0.092,569349.609,8.924,0.422,0.748,0.76,0.255,0.372,0.121,0.477,0.786,-0,0,0,0,0,0,0.004,34.4,9.294,69.175,0.002,1.886,14.821,1010.017,340.28,0.005,0.044
1.664,27.71,29.711,13.536,30.788,16.615,4.532,0,4.532,0.003,8.071,9.634,28.61,-80.6,9.792,2.219,0,17.097,-0,336.917,13.881,0.001,0,201.415,144.557,1.653,0.092,570779.669,8.924,0.423,0.748,0.759,0.255,0.373,0.121,0.451,0.745,0,0,0,0,0,0.001,0.004,34.4,9.294,69.25,0.002,1.888,14.82,1010,340.28,0.005,0.045
1.67,27.864,29.781,13.568,30.869,16.592,4.574,0,4.574,0.003,8.121,9.549,28.61,-80.6,9.792,2.072,0,20.98,-0,336.88,13.844,0.001,0,201.543,144.545,1.657,0.092,572281.885,8.924,0.425,0.748,0.758,0.255,0.373,0.121,0.42,0.695,-0,0,0,0,0,0.001,0.004,34.4,9.294,69.348,0.002,1.89,14.819,1009.982,340.279,0.005,0.045
1.675,28.028,29.856,13.608,30.955,16.563,4.619,0,4.619,0.003,8.173,9.443,28.61,-80.6,9.792,1.895,-0,24.822,-0.003,336.84,13.804,0.001,0,201.698,144.533,1.662,0.093,573883.601,8.924,0.426,0.748,0.756,0.255,0.373,0.121,0.383,0.635,-0,0,0,0,0,0.002,0.004,34.4,9.294,69.474,0.002,1.893,14.818,1009.963,340.278,0.006,0.045
1.681,28.207,29.938,13.658,31.048,16.529,4.668,0,4.668,0.003,8.229,9.31,28.61,-80.6,9.792,1.681,-0,28.613,-0.003,336.797,13.761,0.001,0,201.886,144.519,1.668,0.093,575626.514,8.924,0.428,0.748,0.755,0.255,0.373,0.121,0.339,0.562,0,0,0,0,0,0.002,0.004,34.4,9.294,69.634,0.003,1.895,14.817,1009.942,340.278,0.006,0.045
1.688,28.408,30.03,13.72,31.153,16.487,4.723,0,4.723,0.003,8.291,9.143,28.61,-80.6,9.792,1.418,-0,32.318,-0.004,336.749,13.713,0.001,0,202.119,144.504,1.675,0.093,577581.445,8.924,0.43,0.749,0.753,0.255,0.373,0.121,0.285,0.474,0,0,0,0,0,0.003,0.004,34.4,9.294,69.839,0.003,1.898,14.815,1009.918,340.277,0.007,0.045
1.696,28.646,30.138,13.799,31.277,16.434,4.789,0,4.789,0.003,8.363,8.926,28.61,-80.6,9.792,1.084,-0,35.86,-0.006,336.692,13.656,0.001,0,202.419,144.486,1.684,0.094,579885.557,8.924,0.432,0.749,0.751,0.255,0.373,0.121,0.217,0.361,-0,0,0,0,0,0.003,0.004,34.4,9.294,70.109,0.003,1.902,14.814,1009.89,340.276,0.008,0.046
1.706,28.957,30.281,13.907,31.439,16.36,4.876,0,4.876,0.003,8.453,8.616,28.61,-80.6,9.792,0.618,0,39.006,-0.005,336.618,13.582,0.001,0,202.842,144.463,1.697,0.094,582891.794,8.925,0.436,0.749,0.75,0.255,0.373,0.121,0.123,0.204,-0,0,0,0,0,0.004,0.004,34.4,9.294,70.496,0.003,1.907,14.812,1009.854,340.275,0.01,0.046
